stop_id,stop_code,stop_name,stop_lat,stop_lon,stop_url
3347,3347,Logroño. Av. España 1 (Estación Bus),42.46007694143860,-02.44454424108795,
3780,3780,Mendavia. c/ Molino 27,42.44804052864920,-02.20557854480968,
4149,4149,Mendavia. c/ Augusto Echeverría F/36,42.44439942878100,-02.19873007607486,
3492,3492,Mendavia. c/ Ctra. Lodosa F/13,42.44492181068550,-02.19616983538722,
3481,3481,Lodosa. Av. De Navarra 71,42.42540557121470,-02.08235963511160,
3581,3581,Lodosa. Av. De Navarra F/1,42.42425890536880,-02.07863240331171,
3477,3477,Sartaguda. Ctra. Lodosa 21,42.38310446427080,-02.05790369090201,
3589,3589,Azagra. Av. Diputación PROX. 2,42.30713694583550,-01.89723246698738,
3588,3588,San Adrián/San Adrián. Pl. Vera Magallón 12,42.33276830396010,-01.93341648606302,
3903,3903,Andosilla. c/ Porvenir 38,42.37230031998880,-01.94758891968355,
3586,3586,Andosilla. c/ Ramón y Cajal  50,42.37678996225910,-01.94418574857991,
3963,3963,Cárcar. c/ Ctra. Barranco 15,42.39138801687310,-01.97788581295926,
3583,3583,Cárcar. c/ Salvador Ordoñez F/33,42.39462560755040,-01.98040899250383,
4170,4170,Lodosa. c/ Ctra. De Carcar 53,42.42227074786830,-02.07220705296680,
3491,3491,Mendavia. c/ Ctra. Lodosa 13,42.44502978635860,-02.19615629522677,
4150,4150,Mendavia. c/ Augusto Echeverría 47,42.44445396924120,-02.19880233861611,
3779,3779,Mendavia. c/ Molino F/27,42.44809380068800,-02.20546842888771,
3478,3478,Sartaguda. Ctra. Lodosa 18,42.38313898625250,-02.05772095899863,
3031,3031,Pamplona/Iruña. Estación Bus. Yanguas y Miranda 2,42.81136628418360,-01.64531046934006,
4022,4022,Torres. NA-2420 km 0 1 A,42.74647207843720,-01.59874890774454,
4041,4041,Zulueta. NA-2420 km 1 4 A (rotonda),42.73925878872000,-01.58556754426588,
3108,3108,Elorz/Elorz. NA-2420 km 3 7 A,42.72937169780720,-01.56249878977747,
3106,3106,Monreal/Elo. c/ Ctra Jaca 17,42.70513847285850,-01.50554927189953,
3104,3104,Salinas Ibargoiti/Getze Ibargoiti.NA-2420 km10 9A ,42.69540254786280,-01.48694582562395,
3102,3102,Idocin. c/ San Clemente 1,42.68811068237720,-01.47153504267960,
4043,4043,Izco. NA-2420 km 17 7 A (int. NA-5102),42.65973924492990,-01.42336536275126,
3098,3098,Nardués-Aldunate. NA-2420 km 23 1 A (int. NA-2404),42.64902192831520,-01.36423908023763,
4109,4109,Lumbier. NA-2420 km 25 3 A (int. NA-534),42.63951485868930,-01.34063067742231,
4237,4237,Liédena. c/ Ctra. Jaca 5,42.61396467586670,-01.27826397044168,
3091,3091,Sangüesa/Zangoza. c/ Magdalena PROX. 4,42.57216330173580,-01.28193769621928,
3089,3089,Aibar/Oibar. c/ Travesía de Sangüesa PROX. 7,42.59092617842500,-01.36215346429958,
3087,3087,Cáseda. c/ Monasterio de Leyre (int. c/ San Blas),42.52331668617630,-01.36423925111149,
3090,3090,Aibar/Oibar. c/ Travesía de Sangüesa F/7,42.59094714371980,-01.36236010640813,
3095,3095,Lumbier. NA-2420 km 25 6 (int. NA-150),42.64125638945620,-01.33901085757696,
3097,3097,Nardués-Aldunate. NA-2420 km 23 1 D (int. NA-2404),42.64925091885800,-01.36387929233040,
3099,3099,Izco. NA-2420 km 17 7 D (int. NA-5102),42.65981421032020,-01.42292422512945,
3101,3101,Idocin. c/ San Clemente 10,42.68820905700120,-01.47148380311051,
3103,3103,Salinas/Getze Ibargoiti. NA-2420 km 10 9 D,42.69537825345960,-01.48647029594529,
3105,3105,Monreal/Elo. c/ Ctra Jaca F/17,42.70526275537290,-01.50541197863858,
3107,3107,Elorz/Elortz. NA-2420 km 3 7 D (marquesina),42.72945010673240,-01.56228932529877,
3109,3109,Zulueta. NA-2420 km 1 4 D (marquesina rotonda),42.73944256540020,-01.58513576317843,
4021,4021,Torres. NA-2420 km 0 1 D,42.74649562815630,-01.59846407382410,
3121,3121,Tafalla. c/ Recoletas 7,42.52591040327940,-01.67578025670826,
3119,3119,San Martín de Unx. Pl. Miguel Sanz 1,42.52359859159230,-01.56174050562119,
3118,3118,Lerga. c/ San Francisco Javier F/29,42.56758584973890,-01.50099526648627,
3116,3116,Eslava. c/ Inmaculada 38,42.56421072127770,-01.45840086599280,
4059,4059,Ayesa. NA-132 Km 61 2 D (int. NA-5320),42.55589043858190,-01.41491306086518,
3111,3111,Sada. c/ Arrabal PROX. 2,42.58558931788000,-01.39674515360847,
3249,3249,Estella-Lizarra. Estación Bus. Pl. Coronación 1,42.67000976603690,-02.03322107015550,
3489,3489,Muniáin de la Solana. c/ Mayor 18,42.62049666850480,-02.01206419614463,
3487,3487,Morentin. c/ Fueros 12,42.61313901942310,-02.01414361349326,
3485,3485,Dicastillo. c/ Beneficencia 18,42.59547848434810,-02.02670880468549,
4029,4029,Allo. Ps. La Fuente F/11,42.56793939555000,-02.02144794616008,
4151,4151,Sesma. c/ Mayor  1,42.48011522104670,-02.08452807950221,
3483,3483,Sesma. c/ Mayor F/69,42.47738925761070,-02.08600347212420,
5105,5105,Sartaguda. Pl.de los Fueros 7,42.38017952194750,-02.05872622873008,
4050,4050,Mués. c/ Mayor 128,42.60606646265870,-02.22695165750868,
3454,3454,Ubago. NA-7410 km 9 68A,42.61766229804830,-02.26476997826066,
3455,3455,Mirafuentes. c/ Ctra. Codés PROX. 44,42.62190263439860,-02.28003137066285,
3457,3457,Otiñano. Pl. Berrueza 1,42.62662225268680,-02.29751330102885,
3459,3459,Nazar. NA-7203 km 3 3 A,42.63658088365070,-02.27703213081984,
3462,3462,Asarta. NA-7203 km 1 1 D (int. NA-7252),42.64095478339740,-02.25239809603368,
3450,3450,Mendaza. c/ La Venta F/5,42.64186774764960,-02.23963273516086,
5108,5108,Sorlada. NA-7412 km 0 22A,42.61519231150350,-02.21660696023470,
3463,3463,Piedramillera. c/ Bajera F/1,42.63095835979140,-02.20209273238898,
3465,3465,Oco. c/ San Millán PROX/12,42.63915536185870,-02.16576129215556,
3468,3468,Legaria. Barrio San Martin 14,42.64822202987250,-02.17417940362975,
5110,5110,Ancín. NA-6340 km19 24A,42.65822803359300,-02.19004725499642,
3438,3438,Mendilibarri. NA-132-A km 12 8 D (int. NA-7274),42.65724711553500,-02.17065568086532,
3440,3440,Murieta. Ctra. Estella-Vitoria PROX. F/24,42.65578758604950,-02.15336228780809,
3442,3442,Zufía. NA-132-A km 7 2 D (F/int. NA-7310),42.65752797021780,-02.10400979603865,
3444,3444,Zubielqui. Zaldu k. F/4,42.67797571291890,-02.06636822190679,
3367,3367,Oteiza. Pl. Los Fueros 3,42.61922836203550,-01.95374608521913,
4561,4561,Estella-Lizarra. c/ La Cruz PROX. 2,42.65247101574350,-02.00438583634102,
4559,4559,Villatuerta. Av. Los Castaños PROX. F/4,42.65585906014160,-01.99955288251028,
4557,4557,Villatuerta. c/ Ronda Iglesia PROX. 11,42.65729082178770,-01.99488659126562,
4555,4555,Villatuerta. c/ Erregueta (Prox. centro salud),42.65920057158440,-01.99067088076864,
3407,3407,Villatuerta. c/ Ctra. Pamplona PROX. 12,42.66184799899030,-01.99731575360831,
3372,3372,Estella-Lizarra. Av. Pamplona F/36,42.66529125058280,-02.01950546876648,
4159,4159,Estella-Lizarra. Pl. San Agustín 5,42.67067121249330,-02.02520526909564,
4533,4533,Estella-Lizarra. c/ Carlos VII  PROX. 9A,42.66412302947100,-02.03235700915447,
3409,3409,Estella-Lizarra. c/ Fray Diego de Estella F/42,42.66691821984720,-02.03184132466602,
4531,4531,Estella-Lizarra. Ps. La Inmaculada F/1,42.67067263146540,-02.03041571399773,
4529,4529,Estella-Lizarra. Ps. La Inmaculada 48,42.67153804657110,-02.03297395880590,
3471,3471,Azagra. NA-134 km 47 8 A (marquesina),42.31435224805410,-01.90020061530030,
3587,3587,San Adrián/San Adrián. Pl. Vera Magallón 4,42.33287714905510,-01.93349960061241,
3469,3469,Calahorra. c/ Doctor Fleming 10,42.30215865276130,-01.96501626879473,
3590,3590,Azagra. Av. Diputación PROX. F/2,42.30713892903500,-01.89743869389670,
3585,3585,Andosilla. c/ Ramón y Cajal  45,42.37687178606030,-01.94426940304797,
4047,4047,Andosilla. c/ Porvenir PROX. 65,42.37258213638410,-01.94787569757810,
5071,5071,Calahorra. Av. La Estación 11,42.30669317374230,-01.95970079626573,
5074,5074,Calahorra. c/ Basconia F/19,42.30610068833060,-01.96498935525963,
3472,3472,Azagra. NA-134 km 47 8 D (F/Marquesina),42.31435410983650,-01.90039473357714,
4153,4153,Sartaguda. Ctra. Lodosa 57,42.38512994238730,-02.05670715092510,
3778,3778,Sartaguda. Pl. de los Fueros 19,42.38074900467550,-02.05840053910922,
3964,3964,Cárcar. c/ Ctra. Barranco F/15,42.39131804673050,-01.97811779655270,
4643,4643,Donostia/San Sebastián. Federico G. Lorca ps. 1,43.31700954066570,-01.97738190523843,
3399,3399,Puente la Reina/Gares. Ps. Los Fueros F/6,42.67098271824930,-01.81488425056156,
3582,3582,Lodosa. Pl. La Cruz,42.42426614244780,-02.07841349542536,
4155,4155,Sartaguda. Ctra. Lodosa 52-D,42.38516356263330,-02.05641509302551,
4169,4169,Lodosa. c/ Ctra. De Carcar F/53,42.42217208834040,-02.07225712871513,
5075,5075,Calahorra. c/ Ruiz y Menta 9,42.30693435410690,-01.96389707124350,
5073,5073,Calahorra. c/ Bebricio 17,42.30348492571430,-01.96532110730166,
5072,5072,Calahorra. Av. La Estación 24,42.30670664351840,-01.95953963666695,
3195,3195,Altsasu/Alsasua. Isidoro Melero k. 25,42.89627316798640,-02.17273239923170,
3197,3197,Olazti/Olazagutía. Ziordia k. 1,42.87593797386510,-02.20034552293801,
3200,3200,Ziordia. NA-2410 km 36 2 A,42.86893353346500,-02.22408890634687,
3213,3213,Agurain/Salvatierra. Fueros k. 23,42.84936989519250,-02.38839460450060,
5076,5076,Arkauti/Arcaute. N-104 km 355 A (escuela agraria),42.85437535055930,-02.62728132199768,
5047,5047,Vitoria-Gasteiz. Alava k. F/31,42.83697974427460,-02.67448347416124,
5049,5049,Vitoria-Gasteiz. Gasteiz etorb. 18,42.84396154111490,-02.68236572048922,
5045,5045,Vitoria-Gasteiz. Bus Geltokia. Euskaltzaindia enp.,42.85942723260680,-02.68474298385968,
5077,5077,Vitoria-Gasteiz. Zaramaga k. 1 (Boulevard),42.86123214637080,-02.66839825252212,
3915,3915,Alli. NA-7500 km 14 3 A (F/int. NA-7504),42.99522865202830,-01.89646267376785,
3140,3140,Lekunberri. Aralar k. 32,43.00451595476540,-01.89586688284700,
3214,3214,Agurain/Salvatierra. Fueros k. 18,42.84936163535530,-02.38806507628053,
4157,4157,Pamplona/Iruña. F/Hospitales. Av. Pio XII 41,42.80673145327930,-01.66084623982112,
3125,3125,Aizoáin/Aitzoain. c/ Ctra. Guipúzcoa F/16,42.84610781280190,-01.68540047029593,
3128,3128,Berrioplano/Berriobeiti. N-240-A km 6 8 A,42.85246364596830,-01.69467737467759,
3685,3685,Añézcar. c/ Ctra. Guipúzcoa PROX. F/4,42.86510446341440,-01.71995906950812,
3131,3131,Sarasa. c/ Ctra. Guipúzcoa F/1,42.87626361593950,-01.74777888908100,
3134,3134,Erice. NA-240-A Km 13 9 A,42.88488132158290,-01.76715629043740,
3684,3684,Sarasate. NA-240-A km 15 6 A (int. NA-4121),42.89463653752080,-01.78221418429529,
3136,3136,Gulina. NA-240-A km 17 1 A (Disem. Las Ventas),42.90267482442980,-01.79637501558355,
3245,3245,Irurtzun. San Martin k. 23-A,42.91816136881880,-01.82650779821503,
3137,3137,Latasa. NA-1300 km 4 3 A,42.95264400837240,-01.82412336185936,
3682,3682,Urritza. Ventas de Urriza k. PROX. 9,42.96162857917860,-01.82828018102448,
3911,3911,Aurritz. A-15 Km 124 A (ramal x NA-1300),42.99612054441100,-01.87615575466184,
3139,3139,Lekunberri. Aralar k. F/32,43.00458774532160,-01.89584105815545,
3909,3909,Lekunberri. Aralar k. F/52,43.00683699568900,-01.89843878081008,
3679,3679,Aurritz. A-15 Km 124 D (ramal x NA-7505),42.99605034903700,-01.87726112938245,
3681,3681,Urritza. Ventas de Urriza k. PROX. 6,42.96155282850050,-01.82879657449311,
3138,3138,Latasa. NA-1300 km 4 3 D,42.95264577113950,-01.82429495544671,
3246,3246,Irurtzun. San Martin k. 20,42.91821890466550,-01.82684976934984,
3135,3135,Gulina. NA-240-A km 17 1 D (Disem. Las Ventas),42.90235007255330,-01.79632010048757,
3683,3683,Sarasate. NA-240-A km 15 6 D (F/int. NA-4121),42.89456672612600,-01.78242376650089,
3133,3133,Erice. NA-240-A Km 13 9 D,42.88428063804750,-01.76707459947119,
3132,3132,Sarasa. c/ Ctra. Guipúzcoa 1,42.87619507196910,-01.74809861674390,
3129,3129,Añézcar. c/ Ctra. Guipúzcoa F/4,42.86515742284700,-01.72066799450164,
3127,3127,Berrioplano/Berriobeiti. N-240-A km 6 8 D (hotel),42.85232085401710,-01.69479054698699,
4065,4065,Aizoain. c/ Ctra. Guipúzcoa 20,42.84568186373670,-01.68516475880921,
3907,3907,Etxarri/Etxarri. Santa Cruz k. 19,43.01049221040910,-01.87705927844237,
3905,3905,Aldatz. San Martin k. 43,43.00943417481920,-01.86021897996197,
3187,3187,Etxarri Aranatz. Burundabide etorb. F/ 6,42.90572394640560,-02.06469683599352,
3243,3243,Arbizu. Iruñeko etorb. F/32 (F/polikiroldegia),42.91591964347720,-02.03887477169628,
3184,3184,Lakuntza. Mikel Arregi k. F/1,42.92216942133430,-02.02297100415795,
3179,3179,Uharte Arakil. Geltokiko k. PROX. F/2 (marquesina),42.91962679969540,-01.97026389624851,
4163,4163,Pamplona/Iruña. UPNA. c/ Cataluña,42.80152482352800,-01.63707524116043,
3919,3919,Iribas. San Fermin k. 2,42.98917809641270,-01.90497352936371,
3917,3917,Baraibar. c/ San Miguel 31,42.98913087851270,-01.92276060320992,
3495,3495,Larraona. c/ La Blanca 183,42.77949336976130,-02.25803329245950,
3497,3497,Aranarache/Aranaratxe. c/ San Miguel 82,42.77909285561140,-02.22882049487241,
4315,4315,Eulate. c/ Gonea 11-A,42.77695864003610,-02.21036358459844,
3499,3499,Eulate. c/ Copalacio Bajo 24,42.77596110778400,-02.20546211554651,
3501,3501,Ecala. c/ San Mguel 43,42.76233877336150,-02.18412649085268,
3503,3503,San Martín de Améscoa. c/ La Unión 89,42.76679199192120,-02.16850871396133,
4146,4146,Zudaire. NA-718 km 15 2 A,42.77372812304390,-02.13598590908848,
3255,3255,Zudaire. c/ San Antón 21-29,42.77236750569950,-02.13349903373902,
4343,4343,Baríndano. c/ Magdalena 36,42.76585288552960,-02.13063219966137,
3507,3507,Baquedano. c/ La Fuente 62,42.78405988764110,-02.11980165340694,
3509,3509,Gollano. c/ El Centro 32,42.77813360527470,-02.11154852052961,
3511,3511,Artaza. c/ Santa María 1,42.77120534116410,-02.10998535982602,
3253,3253,Artavia. Cocheras k. 5,42.73586818169890,-02.08037838501792,
3515,3515,Amillano. NA-718 km 4 8 D (int. NA-7137),42.71615286964180,-02.07449051838343,
3251,3251,Larrión. Urbasa Errepidea 15-B,42.71040798122870,-02.07123009270478,
3517,3517,Eulz. NA-718 km 3 3 D (int. NA-7139),42.70404996551880,-02.06678286521277,
3519,3519,Eraul. NA-718 km 1 4 D (F/int. NA-7189),42.69495551134880,-02.04884173790758,
3521,3521,Estella-Lizarra. NA-132-A km 0 5 D,42.68017947334560,-02.03993483090383,
3522,3522,Estella-Lizarra. NA-132-A km 0 5 A,42.68024136935540,-02.03979961806885,
3520,3520,Eraul. NA-718 km 1 4 A (F/int. NA-7189),42.69478169163230,-02.04851476691929,
3518,3518,Eulz. NA-718 km 3 3 A (int. NA-7139),42.70407508832750,-02.06655049670631,
3252,3252,Larrión. Urbasa Errepidea 8-B,42.71043440021110,-02.07115643059571,
3516,3516,Amillano. NA-718 km 4 8 A (int. NA-7137),42.71625162148350,-02.07445240106005,
3513,3513,Artavia. Cocheras k. F/4,42.73500864841810,-02.07987803067272,
3256,3256,Zudaire. c/ San Antón 57,42.77243127635650,-02.13359592092158,
3504,3504,San Martín de Améscoa. c/ La Unión 92,42.76685546715240,-02.16856897730429,
3500,3500,Eulate. c/ Copalacio Bajo 63,42.77606984113190,-02.20555851971796,
4316,4316,Eulate. c/ Gonea 20-22,42.77702150356070,-02.21033833687038,
3498,3498,Aranarache/Aranaratxe. c/ San Miguel PROX. 4,42.77918339573010,-02.22889272068268,
3496,3496,Larraona. c/ La Blanca 114,42.77955632333330,-02.25802031578463,
3505,3505,Zudaire NA-718 km 13 9 A (F/marquesina),42.76870112175360,-02.12859997333685,
4318,4318,Ecala. NA-7130 km 3 4 A,42.76825328076620,-02.18132305011317,
4317,4317,Ecala. NA-7130 km 3 4 D,42.76815379399980,-02.18126324669395,
3506,3506,Zudaire. NA-718 km 13 9 D (marquesina),42.76857430694290,-02.12850396868378,
3916,3916,Alli. NA-7500 km 14 3 D (int. NA-7504),42.99505035740560,-01.89664987739061,
4778,4778,Alli. NA-7500 km 13 4 D,42.99061493284230,-01.89498002037613,
4305,4305,Astitz. San Pedro k. PROX. 10,42.97111264409750,-01.87878221334621,
4303,4303,Oderitz. San Lorenzo k. 1,42.95112307634700,-01.87251349371487,
3913,3913,Madotz. San Anton k.  PROX. 26,42.93733402829220,-01.87592749979580,
4777,4777,Alli. NA-7500 km 13 4 A,42.99047244302470,-01.89467141568540,
4957,4957,Zaragoza. Aeropuerto. c/ Ctra. Aeropuerto,41.66301334796010,-01.00689899468558,
3577,3577,Zaragoza. Estación Bus. Av. Navarra 80,41.65876566836830,-00.91118838733082,
3579,3579,Tudela. Estación Bus. c/ Cuesta Estación,42.05883944452270,-01.59733804042847,
3575,3575,Mallén. Av. Europa 1,41.90195475204300,-01.42088356314899,
3701,3701,Aguilar del Río Alhama. c/Ctra. Soria 41,41.96409575300740,-01.99245537688503,
3704,3704,Cervera del Río Alhama. Av. La Rioja 63,42.00421457043670,-01.95509507728909,
3705,3705,Ventas de Cervera. LR-123 km 15 7 (Larrate),42.05022695445200,-01.92571824806168,
3540,3540,Baños de Fitero. c/ Extramuros (F/balneario),42.05663804197560,-01.90650326485193,
4011,4011,Fitero. c/ Lejalde 41,42.05574461321870,-01.86187641102701,
3541,3541,Fitero. c/ Ctra. Tudela 20,42.06104131478900,-01.85834920205283,
3708,3708,Cintruénigo. c/ Cantarrondas 19-21,42.07991459540920,-01.80751176148957,
3543,3543,Cintruénigo. Estación Bus. c/ Donantes de Sangre,42.07980199220960,-01.80189219609166,
3545,3545,Corella. c/ Tajadas 5,42.11516035911010,-01.78731430535507,
3707,3707,Cintruénigo. c/ Cantarrondas F/19,42.08004564386990,-01.80712243975138,
3542,3542,Fitero. c/ Ctra. Tudela 13,42.06165026402980,-01.85799986810198,
4012,4012,Fitero. c/ Lejalde 30,42.05588329618890,-01.86133010710731,
3539,3539,Baños de Fitero. c/ Extramuros (balneario),42.05679712778320,-01.90618631898017,
3703,3703,Cervera del Río Alhama. Av. La Rioja 50,42.00426784973770,-01.95517684890100,
3605,3605,Tudela. Hospital. N-121-C km 2 9,42.04039333675780,-01.62473580988436,
3961,3961,Pamplona/Iruña. Av. Baja Navarra 14,42.81319620229500,-01.63864101873734,
3959,3959,Burlada/Burlata. c/ Mayor 36,42.82568824814440,-01.61628429572128,
3077,3077,Villava/Atarrabia. Av. Serapio Huici 3,42.83044081986940,-01.60942448999507,
3957,3957,Huarte/Uharte. c/ Zubiarte 26,42.83180527747660,-01.58921819068884,
3755,3755,Olloki. N-135 km 7 7 A,42.84037718334640,-01.58622062422870,
3753,3753,Zabaldika. N-135 km 9 4 A (San Esteban Auz.),42.85575466090470,-01.58014103152040,
3751,3751,Antxoritz. N-135 km 11 3 D,42.87049464991550,-01.57135513794459,
3765,3765,Antxoritz. N-135 km 11 7 A (int. NA-2339),42.87361173329450,-01.56929969809113,
3749,3749,Zuriain. Landa k. 12,42.87880245010410,-01.56600828605669,
3747,3747,Idoi. N-135 km 13 9 A,42.89160893364830,-01.55751794428915,
3745,3745,Larrasoaña. c/ San Nicolás 21,42.90125613907590,-01.54211644124543,
3743,3743,Urdaitz/Urdániz. San Miguel k. PROX. F/17,42.91222010491060,-01.52424075130888,
3741,3741,Zubiri. Roncesvalles etorb. 12,42.93015595846650,-01.50467039453073,
4313,4313,Zubiri. N-135 km 20 7 A,42.93415808492730,-01.50359299115419,
3739,3739,Agorreta. c/ San Gil F/1,42.94567789863380,-01.49076180791110,
3737,3737,Zilbeti. N-135  km 25 A (F/ int. NA-2532),42.94622111625720,-01.47807407956858,
3735,3735,Erro. Erroko Zeharkarrika 17,42.94277380503140,-01.44605807427957,
3733,3733,Lintzoain. N-135 km 32 3 A,42.95769165021730,-01.43327520625310,
4035,4035,Bizkarreta-Gerendiain. San Pedro k. 29,42.96781298188820,-01.41756800062662,
3729,3729,Mezkiritz. N-135 km 36 1 A,42.96964780508310,-01.40058668709493,
3727,3727,Aurizberri/Espinal. San Bartolome k. 56,42.97953506220920,-01.37123939060252,
3725,3725,Aurizberri/Espinal. N-135 km 42 2 A (camping),42.97342171774310,-01.35245458934351,
3723,3723,Auritz/Burguete. San Nicolas k. F/45,42.98933540465630,-01.33581333308356,
3721,3721,Orreaga/Roncesvalles. N. S. de Roncesvalles k. 20,43.00886122777380,-01.32003415686265,
3724,3724,Auritz/Burguete. San Nicolas k. 45,42.98935447716740,-01.33588641555269,
3728,3728,Aurizberri/Espinal. San Bartolome k. F/56,42.97957953710390,-01.37120142359557,
3730,3730,Mezkiritz. N-135 km 36 1 D,42.96983041622320,-01.40076588942499,
4036,4036,Bizkarreta-Gerendiain. San Pedro k. 30,42.96784983615520,-01.41762836543941,
4101,4101,Lintzoain. N-135 km 32 4 D,42.95872725631740,-01.43393546934168,
4079,4079,Erro. Erroko Zeharkarrika F/7,42.94236570320680,-01.44717147361616,
3738,3738,Zilbeti. N-135 km 25 D (F/ int. NA-2532),42.94663748896700,-01.47823541629837,
3740,3740,Agorreta. c/ San Gil 3,42.94581950734080,-01.49057448371417,
4311,4311,Zubiri. N-135 km 20 7 D,42.93347809750650,-01.50392811661592,
3763,3763,Zubiri. Roncesvalles etorb. 37,42.93216715108200,-01.50421725644144,
3744,3744,Urdaitz/Urdániz. San Miguel k. PROX. 17 (frontoia),42.91226622143020,-01.52432540751472,
3748,3748,Idoi. N-135 km 13 9 D,42.89174427826390,-01.55753928337511,
3750,3750,Zuriain. Landa k. F/10,42.87870542546680,-01.56616970958152,
3754,3754,Zabaldika. N-135 km 9 4 D (San Esteban Auz.),42.85585520657020,-01.58026112579006,
3767,3767,Huarte/Uharte. c/ Zubiarte 19,42.83179501085300,-01.59057651726603,
3078,3078,Villava/Atarrabia. Av. Serapio Huici 14,42.83023985697740,-01.60993062157191,
4117,4117,Burlada/Burlata. c/ Mayor 37 bis,42.82589531103940,-01.61627967671564,
4051,4051,Pamplona/Iruña. Pl. Merindades 1,42.81342187321330,-01.63944334502019,
3953,3953,Elcano. Clínica. c/ Ctra. Clínica,42.83103573706490,-01.55213945973486,
4228,4228,Elcano. c/ Clínica B (int. Ps. La Ermita),42.82897081531680,-01.55552944279205,
3955,3955,Elcano. NA-150 km 2 1 D (rotonda P.I.),42.82591158040170,-01.56097552908370,
4569,4569,Alzuza. NA-150 km 1 1 D (rotonda NA-2373),42.82870726975370,-01.57376043712687,
4229,4229,Pamplona/Iruña. Av. Baja Navarra (F/Seminario),42.81426758483120,-01.63032443182056,
4583,4583,Pamplona/Iruña. Av. Baja Navarra 9bis,42.81320739846770,-01.63993068210027,
4419,4419,Andoain. N-1 km 447 6 D,43.22399205020800,-02.02607421964345,
4037,4037,Donostia/San Sebastián. Univer. Tolosa etor. 70,43.30799787250210,-02.00971450990413,
3122,3122,Tafalla. c/ Recoletas 14,42.52619695632160,-01.67564026347561,
4667,4667,Olite / Erriberri. c/ Rua Romana F/22,42.48506917429010,-01.65466718409647,
4669,4669,Olite / Erriberri. c/ Alcalde Maillata 24,42.47920937062890,-01.65184853713668,
5079,5079,Caparroso. NA-121 km 52 3 A (B. Estación),42.38031613759460,-01.64737963978839,
3558,3558,Caparroso. c/ Ctra. Zaragoza 10,42.34004300069120,-01.65222487944921,
3549,3549,Castejón. Pl. Constitución 9,42.16776755479620,-01.69088562071036,
3547,3547,Alfaro.  Estación Bus. c/ Ctra. Zaragoza 2,42.17960812436530,-01.75866755058382,
3555,3555,Rada. Av. Navarra 26 (colegio),42.31967948231660,-01.57304738186305,
3554,3554,Peralta / Azkoien. c/ Irurzun 49,42.33874533438210,-01.79761278351086,
3617,3617,Tarazona. Av. Ciudad de Teruel (Est. Tarazonica),41.90527527164340,-01.72089014024499,
3626,3626,Cunchillos. c/ Ctra. Cunchillos-Malón PROX. F/9,41.90904764252640,-01.69121377454300,
3623,3623,Vierlas. c/ Ctra. Tarazona 8,41.92682976947910,-01.68205772928704,
3621,3621,Malón. c/ Ctra. Navarra-Grisel (F/int. Av. Fueros),41.95175718028720,-01.67636762767810,
3619,3619,Barillas. c/ Ctra. Tulebras 2,41.97125566096670,-01.66313386196745,
3624,3624,Vierlas. c/ Ctra. Tarazona F/8,41.92675967207020,-01.68222802005066,
3625,3625,Cunchillos. c/ Ctra. Cunchillos-Malón PROX. 9,41.90909555017860,-01.69146599773886,
3607,3607,Murchante. c/ Caidas F/17,42.02830621404500,-01.65658576624958,
3333,3333,Noáin. c/ Real F/22,42.75806197665410,-01.63375257217519,
3331,3331,Tiebas. N-121 km 13 7 A,42.69724850596930,-01.64276769408491,
3635,3635,Añorbe. c/ Fuentevieja 7,42.65954657932440,-01.71242820884712,
3633,3633,Enériz / Eneritz. c/ Campanario 2 (iglesia),42.67170568359960,-01.72870065253446,
3631,3631,Obanos. c/ Los Infazones F/3,42.67941503789190,-01.78683502003970,
3629,3629,Mendigorria. c/ Ctra. Larraga F/2,42.62836005886860,-01.83154789263182,
3627,3627,Artajona. Av. D.F. Navarra 1,42.58725482687270,-01.76427593297177,
3628,3628,Artajona. Av. S. Isidro Labrador 2,42.58736379056410,-01.76435909086676,
3400,3400,Puente la Reina/Gares. Ps. Los Fueros 6,42.67089205021090,-01.81482495566308,
3634,3634,Enériz / Eneritz. c/ Campanario 2 (F/ Iglesia),42.67159709222890,-01.72865405145992,
3332,3332,Tiebas. N-121 km 13 7 D,42.69669437633620,-01.64312161450142,
3334,3334,Noáin. c/ Real 22,42.75806907538300,-01.63359354883552,
3570,3570,Arguedas. c/ Ctra. Nueva F/52,42.17485665470900,-01.59807934922832,
3568,3568,Valtierra. Ps. de la Ribera 134,42.19583958510320,-01.63453139782905,
3557,3557,Caparroso. c/ Ctra. Zaragoza F/10,42.34006554636410,-01.65210831744926,
5078,5078,Caparroso. NA-121 km 52 3 D (B. Estación),42.38070348113780,-01.64708849919047,
4639,4639,Olite / Erriberri. c/ Alcalde Maillata PROX. 21,42.47808087731220,-01.64931792406349,
4637,4637,Olite / Erriberri. c/ Rua Romana PROX.8,42.48399290946480,-01.65274351819485,
3526,3526,Cadreita. Av. Navarra 43,42.21678619148700,-01.69251714750505,
3523,3523,Milagro. Av. San Juan F/10,42.24172621371290,-01.76563039247235,
3527,3527,Villafranca. Pz. de la Juventud,42.27750803996980,-01.74663136386608,
3945,3945,Pamplona/Iruña. Av. Zaragoza 52,42.80359277825280,-01.64437971491137,
3947,3947,Imárcoain. Av. Navarra A (int. Pl. Europa),42.72983824969620,-01.61567201606300,
4119,4119,Imárcoain. Av. Navarra B (int. Pl. Europa),42.72970866596440,-01.61538173858662,
4254,4254,Lekunberri. Aralar k. 22,43.00301037277760,-01.89382036715219,
3567,3567,Valtierra. Ps. de la Ribera 113,42.19569667752730,-01.63463136724109,
3569,3569,Arguedas. c/ Ctra. Nueva 52,42.17484072737080,-01.59824920693123,
3576,3576,Mallén. Av. Europa 2,41.90192558681110,-01.42072755746842,
4321,4321,Viana. c/ San Luis Gonzaga F/48,42.51254934179190,-02.37388967341540,
4095,4095,Viana. c/ San Luis Gonzaga F 12,42.51295643345060,-02.37093977708628,
3420,3420,Viana. c/ La Solana F/1,42.51461687344440,-02.36828149562963,
3349,3349,Viana. c/ La Solana 21-23,42.51409270608100,-02.37122048780839,
3419,3419,Viana. c/ La Solana 1,42.51450921231850,-02.36835561924879,
4093,4093,Viana. c/ San Luis Gonzaga 14,42.51300454117870,-02.37149924905281,
4319,4319,Viana. c/ San Luis Gonzaga 46,42.51276299902970,-02.37343714434285,
3067,3067,Aos. c/ Ctra. Lumbier F/11,42.75748065092870,-01.38775661109753,
3069,3069,Murillo Lónguida/Murelu-Longida. La Asunción F/1,42.74858288633370,-01.36359928068299,
5102,5102,Artajo. NA-8206 km 0 2 A,42.73061533716530,-01.33967606820911,
3073,3073,Artieda. c/ Arriba F/42,42.71358101094680,-01.32323277211550,
3075,3075,Rípodas. NA-150 km 32 9 A,42.68666181891680,-01.30530651897595,
3029,3029,Lumbier. Av. El Prado  PROX. 1,42.65580840039970,-01.30397396490526,
3028,3028,Domeño. c/ Ctra. Domeño 14,42.67587181439680,-01.23953807677600,
3026,3026,Iso. NA-178 km 11 5 A,42.69724396948210,-01.19006312572830,
3024,3024,Bigüézal. NA-178 km 13 2 A,42.69692988039640,-01.17273107906603,
3021,3021,Aspurz. NA-178 km 16 4 D (int. NA-2112),42.71515221499070,-01.15770562335645,
3020,3020,Navascués. NA-178 km 21 2 A (bomberos),42.71735671840350,-01.11829225808541,
3017,3017,Ustés. NA-178 km 26 2 A (int. NA-2124),42.75232800021170,-01.10276602734749,
3015,3015,Uscarrés/Uskartze. NA-178 km 29 5 A (int. NA-2121),42.77377575306740,-01.09397001456449,
3014,3014,Iciz/Izize. NA-178 km 30 8 A,42.78586897152250,-01.09232725335061,
3012,3012,Güesa/Gorza. c/ San Esteban F/10 (F/consultorio),42.80637492592900,-01.09568365668560,
3010,3010,Sarriés/Sartze. c/ San Martín 1,42.83493955950710,-01.10118068673219,
3006,3006,Esparza Salazar/Espartza Zaraitzu. c/ Sta. María,42.85382542908600,-01.09890781848069,
5080,5080,Oronz/Orontze. c/ Mayor 32,42.86848813326270,-01.09710927876934,
3003,3003,Ezcároz/Ezkaroze. c/ Rochapea PROX. 21,42.88766005412540,-01.09821647230685,
3001,3001,Ochagavía/Otsagabia. Barrio Labaria F/19,42.90518639855560,-01.09040056187022,
4212,4212,Lumbier. c/ Extramuros 14,42.65401356567610,-01.30645735458390,
3165,3165,Leitza. Elbarren k. 19,43.07916279525400,-01.91529947378023,
3687,3687,Areso. Elgoyen Auz. 37-A,43.08112475540250,-01.95090251901978,
3166,3166,Leitza. Elbarren k. F/18,43.07910081963680,-01.91541112583082,
4787,4787,Aizoáin/Aitzoain. c/ Ctra. Guipúzcoa PROX. 3,42.84473542379650,-01.68364209475368,
4789,4789,Urritza. Ventas de Urriza k. 3,42.96294701415820,-01.83170378207912,
4205,4205,Lekunberri. Aralar k. 9,43.00177699486850,-01.89198989746449,
3677,3677,Uitzi. Santa Engracia k. 66,43.03932768155540,-01.91552302948234,
3675,3675,Gorriztaran. NA-170 km 7 9 A (F/int. NA-4150),43.08563565356330,-01.88055225130499,
3672,3672,Ezkurra. Carretera k. 4,43.08453907393670,-01.82507906154251,
3669,3669,Eratsun. NA-170 Km 16 3 A (marquesina),43.08528304758870,-01.80475675218353,
3667,3667,Saldias. NA-170 km 19 2 A (int. NA-4029),43.09673976080170,-01.78196111271626,
4265,4265,Beintza-Labaien. NA-170 km 20 7 A,43.10297525488570,-01.76722569077912,
3663,3663,Zubieta. NA-170 km 24 5 A (marquesina),43.12607689271160,-01.74282619509241,
4792,4792,Aurtitz. NA-170 km 26 8 A,43.13181220111800,-01.72092015085312,
3661,3661,Ituren. Plaza k. F/8,43.12896787673200,-01.70732234379882,
3660,3660,Elgorriaga. c/ Mayor F/45,43.13900502291060,-01.68650229038973,
3658,3658,Doneztebe/Santesteban. Ctra. Leiza k. 1,43.13198099986290,-01.67242726094744,
3678,3678,Uitzi. Santa Engracia k. 46,43.03913954041460,-01.91562455384408,
3910,3910,Lekunberri. Aralar k. 52,43.00673831239230,-01.89847735390915,
4206,4206,Lekunberri. Aralar k. 10,43.00162335234810,-01.89193132678006,
4793,4793,Aizoáin/Aitzoain. c/ Ctra. Guipúzcoa F/3,42.84463052085990,-01.68384345207466,
3657,3657,Doneztebe/Santesteban. Ctra. Leiza k. F/1 (IES),43.13225836438700,-01.67227372227334,
3659,3659,Elgorriaga. c/ Mayor 45,43.13906803155180,-01.68650095373458,
3662,3662,Ituren. Plaza k. 8,43.12904114732440,-01.70743144864569,
4791,4791,Aurtitz. NA-170 km 26 8 D,43.13184694899310,-01.72083159504306,
3664,3664,Zubieta. NA-170 km 24 5 D (F/marquesina),43.12621247373310,-01.74287259290672,
4266,4266,Beintza-Labaien. NA-170 km 20 7 D,43.10299498141200,-01.76738505236604,
3668,3668,Saldias. NA-170 km 19 2 D (F/int. NA-4029),43.09686187725460,-01.78159005762307,
3670,3670,Eratsun. NA-170 km 16 3 D (F/marquesina),43.08536522926110,-01.80486572389992,
3671,3671,Ezkurra. Carretera k. F/4,43.08460259985520,-01.82512698886234,
3674,3674,Gorriztaran. NA-170 km 8 D (int. NA-4150),43.08573625129710,-01.88071013232117,
3484,3484,Sesma. c/ Mayor 69,42.47731615225890,-02.08587071086976,
4030,4030,Allo. Ps. La Fuente F/2,42.56820052478530,-02.02144386424702,
3066,3066,Egüés. NA-2377 km 0 4 A (F/marquesina),42.82493430299100,-01.55327559985630,
3062,3062,Ibiricu. NA-2377 km 1 7 A (F/int. NA-2375),42.82854742062790,-01.53845838828376,
3059,3059,Eransus. NA-150 km 6 6 A,42.81807201488540,-01.51311549995064,
3057,3057,Mendióroz/Mendiorotz.NA-150 km 7 6 A(int. NA-2321),42.81162879278090,-01.50447598441117,
3055,3055,Lizoain. NA-150 km 10 3 A (F/int. NA-2325),42.79582384479310,-01.48184428953337,
4081,4081,Urroz-Villa. c/ Sanguibel 1,42.77744219724500,-01.46079161994450,
3051,3051,Villaveta/Billabeta.NA-150 km 18 2 A (int.NA-1720),42.77176743363970,-01.40028094617504,
3049,3049,Ekai de Lónguida/Ekai-Longida. NA-1720 km 1 3 A,42.77513056642210,-01.38633366819591,
3047,3047,Aoiz/Agoitz. c/ Las Eras PROX. 21,42.78687479391650,-01.37037785154417,
3045,3045,Nagore. NA-1720 km 13 7 A,42.85243234865080,-01.37934139296994,
3043,3043,Lacabe/Lakabe. NA-2040 km 3 D,42.87110027086900,-01.34819193358565,
3041,3041,Oroz-Betelu/Orotz-Betelu. Pl. Urabayen F/1,42.89528242259180,-01.30415292673754,
3039,3039,Olaldea. Barrio Olaldea (iglesia),42.91692507601700,-01.28989810917184,
3720,3720,Garralda. Antoniio Arostegui k. PROX. 15,42.94716413944280,-01.28874150541736,
3717,3717,Aribe. c/ Santa María PROX. 10,42.94475302552970,-01.26439201668620,
3036,3036,Orbara. c/ San Román 33,42.96578898027190,-01.24203620465774,
3033,3033,Orbaizeta. Pl. Aezkoako Ohian F/2,42.97364613481120,-01.23010112492132,
3035,3035,Orbara. c/ San Román F/33,42.96581240531430,-01.24180256957136,
3037,3037,Aribe. Santa María k.  13,42.94529885648700,-01.26475664553945,
3042,3042,Oroz-Betelu/Orotz-Betelu. Pl. Urabayen 1,42.89535280040340,-01.30404077015121,
3050,3050,Ekai de Lónguida/Ekai-Longida. NA-1720 km 1 3 D,42.77531779158090,-01.38633978297367,
3052,3052,Villaveta/Billabeta.NA-150 km18 2D (F/int.NA-1720),42.77186679635960,-01.40030283470242,
3053,3053,Urroz-Villa. NA-8103 km 0 5 D,42.77838693335810,-01.46073150528878,
3056,3056,Lizoain. NA-150 km 10 3 D (int. NA-2325),42.79587575094280,-01.48168405717973,
4077,4077,Mendióroz/Mendióroz. NA-150 km 7 5 D,42.81236404862990,-01.50492302675837,
3060,3060,Eransus. NA-150 km 6 5 D,42.81844524860560,-01.51342458577370,
3061,3061,Ibiricu. NA-2377 km 1 7 D (int. NA-2375),42.82838069204390,-01.53809528586113,
3063,3063,Egüés. NA-2377 km 0 4 D (marquesina),42.82500032215520,-01.55340606312977,
3085,3085,Sagaseta. c/ Santa Engracia PROX. 4,42.84211409601990,-01.54308187726077,
3084,3084,Elcano. c/ Rosario F/2,42.83121937484260,-01.54574480488216,
3081,3081,Alzuza. NA-2373 km 0 7 A (Urb. Alzuza 2),42.83407312648790,-01.56880661060350,
3079,3079,Huarte/Uharte. NA-150 km 0 8 A,42.82920079131250,-01.57670040777411,
3065,3065,Villava/Atarrabia. c/ Ezkaba F/7,42.83171940940710,-01.61172845844386,
3883,3883,Burlada/Burlata.c/Bizkarmendia (int. P.I.Mugazuri),42.82887143284990,-01.62037290435972,
3002,3002,Ochagavía/Otsagabia. Barrio Labaria 19,42.90522271175570,-01.09043689184181,
3004,3004,Ezcároz/Ezkaroze. c/ Rochapea F/25,42.88723865886280,-01.09805008969767,
3005,3005,Oronz/Orontze. c/ Mayor F/32,42.86847072874210,-01.09722639130469,
3008,3008,Esparza Salazar/Espartza Zaraitzu. Sta. María F/6,42.85378701424490,-01.09903621860324,
3009,3009,Sarriés/Sartze. c/ San Martín F/1,42.83486999068660,-01.10132964274090,
3011,3011,Güesa/Gorza. c/ San Esteban 10 (consultorio),42.80635036479200,-01.09583116811236,
3013,3013,Iciz/Izize. NA-178 Km 30 8 D (int. NA-2122),42.78552366509170,-01.09268019187446,
3016,3016,Uscarrés/Uskartze. NA-178 km 29 5 D,42.77398193672530,-01.09414166024276,
3019,3019,Navascués. NA-178 km 21 2 D (F/bomberos),42.71714572610870,-01.11860395441915,
3023,3023,Bigüézal. NA-178 km 13 1 D,42.69725085450350,-01.17422329862060,
3025,3025,Iso. NA-178 km 11 5 D,42.69735544494300,-01.19027963902426,
3027,3027,Domeño. c/ Ctra. Domeño 15,42.67586806352510,-01.23987990162396,
3030,3030,Lumbier. Av. El Prado  PROX. F/1,42.65585970125900,-01.30378956497131,
3076,3076,Rípodas. NA-150 km 32 9 D,42.68675057129230,-01.30521866088832,
3074,3074,Artieda. c/ Arriba  42,42.71343376659350,-01.32301693944539,
5101,5101,Artajo. NA-8206 km 0 2 D,42.73045269292020,-01.33955954851501,
3070,3070,Murillo de Lónguida/Murelu-Longida.c/La Asunción13,42.74865559902880,-01.36364624188368,
3068,3068,Aos. c/ Ctra. Lumbier 11,42.75749693453580,-01.38763398540244,
4563,4563,Zaragoza. c/ Hernán Cortes 6,41.64941471164820,-00.88834736718245,
3826,3826,Mugairi. Martin Urrutia etor. 33 (consultorio),43.13767530137700,-01.61052855484463,
3815,3815,Arraioz. Zubiondoa k. F/3,43.14102044406030,-01.56636902898508,
3817,3817,Irurita. Duquesa Goyeneche enp. 7,43.13099525066690,-01.54687031790836,
3819,3819,Elizondo. Santiago k. 25,43.14492240813840,-01.51716175392591,
3818,3818,Irurita. Duquesa Goyeneche enp. F/7,43.13102366164370,-01.54698029632035,
3816,3816,Arraioz. Zubiondoa k. 3,43.14108145539060,-01.56620773512635,
3480,3480,Lodosa. Av. De Navarra 66,42.42550433243990,-02.08232171479341,
3965,3965,Sesma. c/ Las Arcas 1,42.47746780171000,-02.08681744821303,
3413,3413,Los Arcos. Av. Sancho el Sabio F/18,42.56836204647390,-02.19209791434525,
3446,3446,Mués. c/ Mayor 106,42.60589951049460,-02.22623445506662,
3968,3968,Mués. NA-7410 km 7 2 D (int. NA-129),42.61777879587490,-02.23708544688805,
3451,3451,Mendaza. c/ La Venta PROX. 7,42.64156969669360,-02.23950219961794,
3970,3970,Acedo. c/ Ctra. Los Arcos PROX. 1,42.66625922059300,-02.24984149921905,
3431,3431,Zúñiga. NA-132-A km 25 5 A (int. NA-7191),42.68860478996070,-02.29704576062845,
3430,3430,S.Cruz Campezo/Santikurutze Kanpezu. Arrabal F/105,42.67313584458750,-02.34603688205991,
3971,3971,Antoñana. Arrabal k. (A-4125),42.69203609083860,-02.39632982560304,
3974,3974,Atauri. Ctra. Vitoria-Estella k. PROX. 3,42.72713803355960,-02.42674740171849,
3976,3976,Maeztu. Ctra. Vitoria-Estella k. F/2,42.73805340514710,-02.44589863716748,
4442,4442,Virgala Mayor/Birgara Goien. A-132  km 23 3 A,42.75242297818670,-02.47574520582099,
3978,3978,Azáceta. Ctra. Vitoria-Estella k. 8,42.77842367898810,-02.49822676896990,
4443,4443,Egileta. A-132  km 13 D,42.81070236218950,-02.53739820183922,
4446,4446,Hijona/Ixona. A-132  km 11 7  D,42.81763724014540,-02.54655739087362,
3980,3980,Andollu. A-132  km 9 4 D,42.83079346404690,-02.56964635505130,
4451,4451,Argandoña. A-4107 km 0 1 D,42.83880505746350,-02.58581636516128,
4454,4454,Aberásturi. A-132  km 7 2 D  (F/int. A-4119),42.83907521788340,-02.59331567702002,
4456,4456,Askartza. A-132  km 5 D,42.84147982645000,-02.61942631996129,
3982,3982,Elorriaga. N-104 km 353 8 D (eliza),42.85024202135300,-02.64164716676885,
3895,3895,Hernani. Elkano k. (int. Karobieta),43.26696230407740,-01.97677983902813,
4470,4470,Zikugaña. GI-3410 km 0 6 A,43.26198164445760,-01.96764763375793,
4478,4478,Zikugaña. GI-3410 km 2 A,43.26025082910630,-01.95555387059016,
4486,4486,Epela. GI-3410 km 3 5 A,43.25417910914800,-01.94643087182392,
3894,3894,Ereñotzu. Ereñoztu Auzoa 13,43.24260759226200,-01.94049684413393,
4372,4372,Arano. Barrio Venta Berri F/2,43.22077263416780,-01.91183082525342,
3889,3889,Arano. NA-4150 km 25 1 D,43.20749776610490,-01.88541655413339,
3888,3888,Arano. NA-4150 km 23 5 D,43.21138638334490,-01.88159104799144,
4358,4358,Goizueta. NA-4150 km 18 2 A,43.19761581625690,-01.85582414376083,
3885,3885,Goizueta. NA-4150 km 14 76 D,43.17119709163630,-01.86400641416546,
3443,3443,Zubielqui. Zaldu k. 6,42.67811426865090,-02.06679332353000,
3441,3441,Zufía. NA-132-A km 7 2 A (int. NA-7310),42.65774647301960,-02.10431167301039,
3439,3439,Murieta. Ctra. Estella-Vitoria PROX. 24,42.65582351447840,-02.15334959971259,
3437,3437,Mendilibarri. NA-132-A km 12 8 A (int. NA-7274),42.65745714641810,-02.17105552321043,
3435,3435,Ancín. Ctra. Estella-Vitoria 24-26,42.65848454255250,-02.19001479773067,
3433,3433,Acedo. c/ Ctra. Estella-Acedo 28,42.66637612374760,-02.24981568798209,
3428,3428,Genevilla. c/ Ctra. Santa Cruz de Campezo 3,42.64527319194740,-02.38940771519252,
3425,3425,Marañón. c/Ctra. Cabredo PROX. 13,42.62922028337650,-02.43842749216935,
3423,3423,Cabredo. c/ Mayor 2-4,42.62988797650380,-02.41182266249422,
3421,3421,Aguilar de Codés. c/ Portal de Aguilar 5-7,42.61284524854020,-02.39212207879612,
3467,3467,Legaria. Barrio San Martin 17,42.64812218659730,-02.17407093169735,
3466,3466,Oco. c/ San Millán F/12,42.63918379688880,-02.16595607138521,
3464,3464,Piedramillera. c/ Bajera  1,42.63106607761000,-02.20204257294371,
3449,3449,Mendaza. c/ La Venta 3-A,42.64227183276840,-02.23945702926448,
3461,3461,Asarta. NA-7203 km 1 1 A (int. NA-7252),42.64100093298280,-02.25243500666835,
3453,3453,Ubago. c/ Ctra. Mirafuentes F/12,42.61759127164050,-02.26482739056369,
3761,3761,Saigots. NA-138 km 0 8 A,42.94359825823580,-01.50313113298944,
3760,3760,Urtasun. La Asunción k. F/13,42.96399134347580,-01.51601313304845,
3758,3758,Eugi/Eugi. NA-138 km 6 5 A (int. NA-8305),42.97776319057160,-01.50589492141565,
4219,4219,Eugi. San Gil k. 38,42.97864209394440,-01.51183396940913,
3757,3757,Eugi/Eugi. NA-138 km 6 5 D (F/int. NA-8305),42.97759359200400,-01.50600940380462,
3759,3759,Urtasun. La Asunción k. 5,42.96376851564680,-01.51619015876415,
3762,3762,Saigots. NA-138 km 0 8 D,42.94364471104090,-01.50324032193233,
4053,4053,Burlada/Burlata.c/Bizkarmendia (int. c/ S. Isidro),42.82840905013480,-01.62011405664590,
3083,3083,Elcano. c/ Rosario 2,42.83130598922890,-01.54575872454029,
3969,3969,Acedo. c/ Ctra. Los Arcos 4,42.66580101227170,-02.25000565564955,
3967,3967,Mués. NA-7410 km 7 2 A (int. NA-129),42.61781595201360,-02.23725569934718,
3434,3434,Acedo. c/ Ctra. Estella-Acedo 19,42.66618365566640,-02.24930548713920,
3436,3436,Ancín. Ctra. Estella-Vitoria 23-29,42.65842237205880,-02.19013761679380,
3775,3775,Azagra. c/ Ctra. Variante Azagra F/7,42.30562198679110,-01.89609420386179,
4211,4211,Lumbier. c/ Extramuros F/14,42.65412717837330,-01.30646508396616,
3609,3609,Cascante. Av. Constitución 1,41.99633958198810,-01.67878722523938,
3611,3611,Tulebras. N-121-C km 11 6 A,41.97774092499630,-01.67639615878850,
3613,3613,Monteagudo. Av. Los Fueros 19,41.96254600732270,-01.69200073943518,
5086,5086,Novallas. N-121 km 5 7 D,41.94868053764570,-01.69849480625310,
3531,3531,Funes. Av. Peralta 35,42.31658853305470,-01.80428452415348,
3552,3552,Rincón de Soto. Av. Príncipe Felipe 32,42.23443748705670,-01.85111525311736,
3715,3715,Garaioa. Txikirrin k. 14,42.93014198662670,-01.24517145042018,
4323,4323,Abaurrepea/Abaurrea Baja. NA-140 km 15 5 A,42.91469706422500,-01.21827781721240,
3713,3713,Abaurrepea/Abaurrea Baja. NA-140 Km 16 7 A,42.90946915318580,-01.21333251036943,
3711,3711,Abaurregaina/Abaurrea Alta. San Pedro k. 21,42.90334802202200,-01.20771572775407,
3709,3709,Jaurrieta. c/ Santa Agueda 8,42.88629901306000,-01.13930434020895,
3551,3551,Rincón de Soto. Av. Príncipe Felipe 7,42.23447277668880,-01.85104189851802,
4725,4725,Tafalla. Intercambiador Bus. c/ Pesquera 1,42.52279859711250,-01.68038526745851,
3718,3718,Aribe. c/ Santa María PROX. 21,42.94479654412970,-01.26429273538527,
3719,3719,Garralda. Antoniio Arostegui k. PROX. 8,42.94714338887060,-01.28855822596240,
4527,4527,Estella-Lizarra. Av. Yerri F/9bis,42.67374813721470,-02.03523212246577,
4525,4525,Estella-Lizarra. Av. Yerri PROX. F/21,42.67524430347960,-02.03543806018908,
5116,5116,Estella-Lizarra.Hospital. c/Santa Soria 22,42.68327341629700,-02.03830885845769,
4544,4544,Ayegui/Aiegi. NA-1110 km 41 1 D (Urb. Iratxe),42.64468732851810,-02.05882363395353,
3384,3384,Ayegui/Aiegi. NA-1110 km 40 8 D  (Urb. Iratxe),42.64567244363840,-02.05643447898190,
4545,4545,Ayegui/Aiegi. NA-1110 km 39 8 D (Mon. Iratxe),42.65156218892670,-02.04560316891418,
4549,4549,Ayegui/Aiegi. c/ Carretera PROX. 63,42.65479497930920,-02.04007558018184,
4547,4547,Ayegui/Aiegi. c/ Carretera (F/ Plaza Belin),42.65828344322750,-02.03622177519878,
4539,4539,Estella-Lizarra. c/ Carlos VII 27A,42.66154258033840,-02.03334268214643,
5115,5115,Estella-Lizarra. c/ Fray Diego de Estella 42,42.66701745069530,-02.03192369265315,
4535,4535,Estella-Lizarra. c/ Carlos VII  F/13-15,42.66336689125800,-02.03288077457106,
4537,4537,Estella-Lizarra. c/ Carlos VII PROX. 28,42.66158482710330,-02.03383145225282,
4548,4548,Ayegui/Aiegi. c/ Carretera (Plaza Belin),42.65832803951120,-02.03631147620475,
3357,3357,Ayegui/Aiegi. c/ Carretera F/39,42.65628302872660,-02.03828993824547,
3383,3383,Ayegui/Aiegi. NA-1110 km 40 8 A  (Urb. Iratxe),42.64592285940380,-02.05622331577708,
4543,4543,Ayegui/Aiegi. NA-1110 km 41 1 A (Urb. Iratxe),42.64493655792150,-02.05914230853649,
3382,3382,Ázqueta. NA-1110 km 43 5 A (int. NA-8405),42.63509196805590,-02.08540301729140,
3355,3355,Urbiola. c/ Mayor 6,42.61637849714950,-02.10247931157654,
3379,3379,Luquin. c/ Carrera 1,42.61230508399900,-02.10042088978330,
3378,3378,Barbarin. c/ Ctra. Arroniz PROX. 2,42.60228983836880,-02.10183828912504,
3376,3376,Arróniz. Ctra.Allo 2,42.58868616163490,-02.09253095786201,
4133,4133,Arróniz. Ctra. Allo F/55,42.58591600971530,-02.09034064553814,
4526,4526,Estella-Lizarra. Av. Yerri PROX. 21,42.67530323534460,-02.03564542656288,
4528,4528,Estella-Lizarra. Av. Yerri 9,42.67345200986880,-02.03537877852823,
3373,3373,Igúzquiza. c/ Carretera PROX. 23,42.64649756446190,-02.08596818897784,
3389,3389,Villamayor de Monjardín. c/ Santa María 3,42.62888854960220,-02.10390647173271,
3381,3381,Ázqueta. NA-1110 Km 43 5 D (F/int. NA-8405),42.63521413563830,-02.08491336235707,
3375,3375,Arróniz. c/ Ctra. Barbarin PROX. F/1,42.58878501927610,-02.09250514859464,
3377,3377,Barbarin. c/ Ctra. Arroniz PROX. 3,42.60235201057330,-02.10172768390472,
3380,3380,Luquin. c/ Carrera 2,42.61221326997320,-02.10023487864852,
3356,3356,Urbiola. c/ Mayor F/6,42.61639487340230,-02.10227179577603,
3385,3385,Bearin. c/ San Esteban 20-22,42.69295557505030,-02.02800076703951,
4541,4541,Abárzuza/Abartzuza. Nagusia k. 5,42.72515148095530,-02.02153228592814,
3525,3525,Cadreita. Av. Navarra 80,42.21663370631000,-01.69238361865817,
3591,3591,Marcilla. NA-128 km 6 A (B. Estación),42.33435311862730,-01.71970852862436,
3901,3901,Marcilla. Av. Estación 1,42.32811470872740,-01.73944856193204,
3532,3532,Funes. Av. Peralta 34,42.31653336918550,-01.80417636754796,
3337,3337,Falces. c/ Fausta Elorz F/3,42.38773374370570,-01.79299641314750,
3535,3535,Tafalla. Av. Baja Navarra F/13,42.53201982368470,-01.67220514057292,
3325,3325,Barásoain. c/ Doctor Navarro 10,42.60305694331580,-01.64543806933442,
3563,3563,Beriáin. N-121 km 8 9 A,42.73899017755470,-01.63334999857784,
3327,3327,Mendívil. N-121 km 23 1  A,42.62037227151480,-01.63842911721118,
3326,3326,Barásoain. c/ Doctor Navarro F/10,42.60305134117130,-01.64548751230969,
3321,3321,Pueyo. N-121 km 29 2 A,42.57072895896460,-01.64517768598825,
3324,3324,Garínoain. c/ Valdorba 9,42.60029693890360,-01.64559594376131,
4189,4189,Barásoain. N-121 km 23 9 A,42.61319402457220,-01.63986584454651,
3328,3328,Mendívil. N-121 km 23 1  D,42.62024463368740,-01.63829778171006,
3637,3637,Peralta / Azkoien. Av. Funes 4,42.33854591250480,-01.80610175376392,
3529,3529,Marcilla. Av. Estación 6,42.32832318821570,-01.73875258774440,
3899,3899,Funes. Av. Navarra 1,42.31533037089060,-01.80109272110869,
3638,3638,Peralta / Azkoien. Av. Funes 1,42.33848149296680,-01.80596944331557,
3297,3297,Javier. NA-5411 km 0 4 D (parking),42.59127649470780,-01.21277055377226,
3296,3296,Yesa. c/ René Petit F/17,42.61995935026840,-01.20076816264951,
3986,3986,Tiermas. N-240 km 337 D,42.61640353320910,-01.11247432804723,
3987,3987,Escó. N-240 km 330 5 D,42.61746927591150,-01.05739031439931,
3989,3989,Sigüés. A-137 km 0 A (int. N-240),42.61377233487410,-01.02850266295913,
3992,3992,Sigüés. Pl. Aragón F/5,42.63021990110530,-01.01208077001743,
3293,3293,Salvatierra de Esca. c/ Carretera 4,42.66829119260610,-01.00366740614305,
3291,3291,Burgui/Burgi. c/ Camino del Reguecho F/7,42.72039411327560,-01.00210623156627,
4215,4215,Roncal/Erronkari. NA-137 km 24 3 A (int. NA-176),42.79264463252180,-00.96149984234538,
3288,3288,Roncal/Erronkari. Ps. Julián Gayarre F/1,42.80771007075610,-00.95546472624106,
3285,3285,Urzainqui/Urzainki. NA-137 km 29 2 A (puente),42.83171533338480,-00.94632907123968,
3283,3283,Isaba/Izaba. Barrio Bormapea F/32,42.86039540434930,-00.92387181893053,
3282,3282,Uztárroz/Uztarroze. Barrio Iribarne 46,42.89014855497000,-00.93947600659415,
3281,3281,Uztárroz/Uztarroze. Barrio Iribarne F/46,42.89008871872000,-00.93957882895743,
3284,3284,Isaba/Izaba. Barrio Bormapea 32,42.86042240229210,-00.92387090175408,
3286,3286,Urzainqui/Urzainki. NA-137 km 29 2 D (iglesia),42.83158011492830,-00.94682292613951,
3287,3287,Roncal/Erronkari. Ps. Julián Gayarre 1,42.80739220478240,-00.95581763727141,
3289,3289,Garde. c/ Barrio Iriondoa 10 (frontón),42.78840404045890,-00.92447208940770,
3292,3292,Burgui/Burgi. c/ Camino del Reguecho 7,42.72053875300960,-01.00213822776682,
3294,3294,Salvatierra de Esca. c/ Carretera 10,42.66819474244930,-01.00381692505740,
3991,3991,Sigüés. Pl. Aragón 1,42.63027644116400,-01.01222530020873,
3990,3990,Sigüés. A-137 km 0 D (int. N-240),42.61384833201510,-01.02873191288679,
3985,3985,Tiermas. N-240 km 337 A,42.61661240344190,-01.11312641740932,
4216,4216,Roncal/Erronkari. NA-137 km 24 4 D,42.79326024424000,-00.96161293779750,
4406,4406,Mallén. Av. Zaragoza 3Z,41.90071501807120,-01.41783996317856,
3317,3317,Beire. c/ Carrera Aragón 6,42.45399756275190,-01.62191342833128,
3313,3313,Pitillas. c/ Beire 5,42.42329999971240,-01.62008506211562,
3308,3308,Santacara. c/ Ctra. Aibar PROX.23,42.37537970117120,-01.54842570275259,
3305,3305,Mélida. c/ Nueva 14,42.35826051033560,-01.54714946821121,
3303,3303,Murillo el Fruto. c/ Mayor 70,42.39277486617200,-01.46130722864212,
3301,3301,Carcastillo. c/ Aragón F/7,42.37814833031840,-01.44438851811205,
3565,3565,Pamplona/Iruña. Av. Pio XII 36 (Clínica UN),42.80520869642030,-01.66308051388382,
3359,3359,Zizur Mayor/Zizur Nagusia. c/ Zabalgain 1-3,42.78816441005960,-01.69291386438255,
5118,5118,Zizur Mayor. Avenida Belascoáin F/73,42.79280689334560,-01.69911667375183,
5067,5067,Sagüés. c/ San Miguel (iglesia),42.78540198202100,-01.72289084779573,
5069,5069,Gazólaz. c/ Santa María 1,42.79175803127110,-01.71790179249676,
5065,5065,Paternáin. c/ Ctra. Belascoaiin F/25,42.78497379497620,-01.74543746286926,
5063,5063,Larraya. NA-7015 km 6 8 D,42.77795652361980,-01.76410724458909,
5059,5059,Ubani. c/ Camino de la Fuente (marquesina),42.77342745750590,-01.78285760751563,
5061,5061,Zabalza. Pl. de la Iglesia.Calle Larga 8,42.77819431600220,-01.79837868988988,
5057,5057,Arraiza. Pl. del Concejo 5,42.76771095105740,-01.80653310372942,
5055,5055,Belascoáin. c/ San Miguel 7,42.75543901803810,-01.83218078857770,
5117,5117,Zizur Mayor. Avenida Belascoáin 73,42.79272162844540,-01.69895184787292,
4671,4671,Azcona/Aizkoa. c/ de San Martín 1,42.74066708685000,-01.99377079558911,
4655,4655,Arizaleta/Aritzaleta. c/ José Goñi Gaztambide 1,42.75843750245930,-01.97710948510243,
4657,4657,Lezáun. c/ Ctra. Yerri F/16,42.77552177149930,-01.99533001680484,
4727,4727,Ibiricu de Yerri/Ibiriku Deierri. c/ Atabe 1,42.74655092198510,-02.02229524336136,
4659,4659,Iruñela. Pl. San Esteban F/1,42.74096731159360,-02.01052801333941,
4717,4717,Eraul. c/ Mayor 2,42.71681372696830,-02.05041773641701,
4661,4661,Guembe. c/ San Antonio 20,42.78311828544060,-01.90747054854279,
4673,4673,Vidaurre. c/ Santa Catalina F/8,42.77752574083420,-01.91308043320982,
4675,4675,Arguiñano. c/ San Antón 15,42.77551328070130,-01.92489282107977,
4677,4677,Irujo c/ San Román 12,42.76674324423820,-01.92684179952857,
4679,4679,Muez. Pl. Santa Eulalia 3,42.75463523624940,-01.93360284659428,
4663,4663,Riezu/Errezu. Pl. de la Fuente F/1,42.76219123015960,-01.95103701269813,
4681,4681,Iturgoyen. San Millan k. 5,42.77575216816750,-01.95480349420696,
4715,4715,Casetas Ciriza/Ziritzako etxeak. NA-700 km 35 1 D,42.74469068014730,-01.97722293693145,
4665,4665,Zábal/Zabal. c/ Zurucain F/2,42.70979995909310,-02.00091603002223,
4683,4683,Murugarren. NA-700 km 41 4 A,42.70347729664940,-02.01057071118644,
4685,4685,Garísoain. Putzuko k. 5,42.71956331043030,-01.91114480128787,
4713,4713,Irurre. c/ Mayor 8,42.71291653596830,-01.92721959589607,
4687,4687,Lerate. c/ San Pedro 19,42.71815069305290,-01.93592511878075,
4719,4719,Alloz/Allotz. NA-7171 km 1 8 A (monasterio),42.69091454610400,-01.94503051350953,
4689,4689,Alloz/Allotz. Pl. San Miguel 1,42.69414060194720,-01.95915585745569,
4649,4649,Lácar/Lakar. c/ Santa Engracia 1 (iglesia),42.68347485786640,-01.95839679593955,
4691,4691,Murillo de Yerri/Murelu Deierri. c/ Mayor 8,42.68218827987850,-01.97619204408991,
4647,4647,Arandigoyen/Arandigoien. c/ Sol 2,42.66664828902350,-01.98983093891773,
4693,4693,Muniáin de Guesálaz. c/ Santa María 18,42.79441291906440,-01.86146699991451,
4695,4695,Izurzu. c/ San Andrés 4,42.78183299682260,-01.86531263726970,
4651,4651,Salinas de Oro/Jaitz. c/ Rotxapea 4,42.77457186597970,-01.88990690072753,
4697,4697,Muzqui. c/ La Fuente F/2,42.73582127394590,-01.91295605354870,
4699,4699,Esténoz. c/ San Martín 2,42.74418985936110,-01.92250048179707,
4701,4701,Arzoz. Pl. Plaza 1,42.74581614520700,-01.89965384720995,
4703,4703,Viguria. c/ El Rosario 1,42.75637319752420,-01.90836154609464,
4705,4705,Villanueva de Yerri/Hiriberri Deierri. c/ Mayor 11,42.73716957264430,-01.94711681228031,
4653,4653,Ugar. c/ Pantano 5,42.73132521048900,-01.97564597186852,
4707,4707,Arizala/Aritzala. Pl. La Fuente 7,42.72767792970850,-01.99961559188547,
4709,4709,Zurucuáin/Zurukuain. c/ San Bartolomé 3,42.69163333220070,-01.99796223339646,
4711,4711,Grocin/Gorozin. Pl. de la Magdalena 1,42.68211634549660,-01.99757730270841,
5135,5135,El Busto.Plaza El Rollo,42.54923775888290,-02.24221858462757,
5136,5136,Torres del Río.C/La Carrera,42.55272965568340,-02.27210742731434,
4813,4813,Armañanzas. Calle del Sol 1,42.55986325005830,-02.28393105938828,
5137,5137,Bargota.Ctra Torres del Río (marquesina),42.55830976700950,-02.30964066466352,
4809,4809,Desojo. c/ Mayor 3,42.58713200842930,-02.27338889462131,
4807,4807,Espronceda. c/ Campillo F/11,42.59705235146600,-02.30617243901562,
4805,4805,Torralba del Río. c/ Arrabal bajo F/14,42.60872998353790,-02.33070241952863,
4803,4803,Azuelo. c/ Carretera 2,42.60839056426260,-02.34915565763749,
3353,3353,Sansol. c/ Ctra. Logroño 9,42.55300101890100,-02.26597758897890,
3414,3414,Los Arcos. Av. Sancho el Sabio 18,42.56830595526580,-02.19180623112247,
4031,4031,Orkoien. c/ Ctra. Echauri 8A (centro salud),42.82262337164350,-01.69492719383690,
4594,4594,Orkoien. c/ Ctra. Echauri PROX. F/26 (rotonda),42.82267777210900,-01.70223091829499,
3922,3922,Arazuri. c/ Ctra. Etxauri 22,42.81835014171290,-01.71920079691779,
3924,3924,Ororbia. c/ Ctra. Etxauri F/13,42.81639660630270,-01.74771744982545,
3925,3925,Lizasoáin. c/ Ctra. Olza F/1,42.83441039032820,-01.77044184833848,
3927,3927,Olza. NA-7061 km 2 6 D,42.84460822317680,-01.78091052084995,
3926,3926,Lizasoáin. c/ Ctra. Olza 1,42.83440230667750,-01.77052765820348,
3929,3929,Asiáin. Mercaderes K.  PROX. 11,42.83044198925960,-01.78588762561864,
3931,3931,Izu. San Donato k. PROX. 4,42.82694269707030,-01.78963870819212,
3933,3933,Artázcoz. Etxauriko errepidea k. F/3,42.81880307471520,-01.78125941262226,
3935,3935,Izcue. Pl. Santa Eulalia F/3,42.81310162996910,-01.77946344757955,
3937,3937,Ibero. c/ Lubia F/1,42.80402214728850,-01.77504389846297,
3923,3923,Ororbia. c/ Ctra. Etxauri 19,42.81585427269200,-01.74753270715037,
3921,3921,Arazuri. c/ Ctra. Etxauri F/24,42.81817487586580,-01.71963254999808,
4593,4593,Orkoien. c/ Ctra. Echauri PROX. 26 (rotonda),42.82259446112050,-01.70173025163866,
4141,4141,Orkoien. c/ Ctra. Echauri F/8A (F/Centro Salud),42.82232996710020,-01.69446851492096,
3789,3789,Oricáin. N-121-A km 6 5 A (int. NA-2552),42.85209934082470,-01.62216829113175,
3851,3851,Sorauren. N-121-A km 8 9 D,42.87061510555160,-01.60962319634194,
3879,3879,Olave/Olabe. N-121-A km 10 6 A,42.88444426224690,-01.60423024393039,
3853,3853,Endériz. N-121-A km 12 9 A,42.90459525407600,-01.61217809809419,
3796,3796,Ostiz/Ostitz. c/ San Juan F/32,42.91363285372390,-01.61709601249923,
3855,3855,Ciáurriz/Ziaurritz.NA-411 km 26 D (F/int. NA-4241),42.92979634839080,-01.63504204907641,
3857,3857,Ripa/Erripa. NA-411 km 24 8 D (int. NA-4232),42.93932303096330,-01.63952547067812,
3859,3859,Latasa. NA-411 km 22 9 D,42.95073417973730,-01.65261119379628,
4289,4289,Urritzola-Galain. NA-411 km 21 9 D (int. NA-4242),42.95605682848710,-01.66264595304057,
4291,4291,Urritzola-Galain. NA-411 km 21 7 D,42.95735955906870,-01.66470189404381,
4293,4293,Gerendiain. NA-411 km 20 2 D,42.96713263422590,-01.67655593518309,
3731,3731,Gerendiain. c/ San Lorenzo 15,42.96964913605230,-01.67613402856982,
3861,3861,Zenotz. La Asunción k. F/2,42.97542808768900,-01.67672117803174,
3863,3863,Iraizotz. San Martin k. 11,42.99400374475000,-01.67426120814559,
4275,4275,Alkotz. San Esteban k. PROX. 12,42.99975377424840,-01.67313140288196,
3865,3865,Alkotz. San Esteban k. 38,43.00101371334360,-01.66764472607618,
4277,4277,Alkotz. San Esteban k. 45,43.00116842348400,-01.66392396143073,
3867,3867,Arraitz-Orkin. La Asunción k. F/32,43.00174409616750,-01.64777803021558,
4278,4278,Alkotz. San Esteban k. F/45,43.00126687965530,-01.66387275290478,
3866,3866,Alkotz. San Esteban k. F/38,43.00109530839460,-01.66769203733041,
4276,4276,Alkotz. San Esteban k. 10,42.99956927736310,-01.67352797331572,
3864,3864,Iraizotz. San Martin k. F/11,42.99408633153000,-01.67439436031829,
4279,4279,Iraizotz. NA-4161 km 2 D,42.99050444736310,-01.67924315335985,
3869,3869,Larraintzar. NA-411 km 17 7 A,42.97712208729130,-01.69405050480631,
3871,3871,Auza. San Martin k. 30,42.99054979476570,-01.70924628034823,
4115,4115,Auza. San Martin k. 45,42.99189990578100,-01.71078814279940,
4287,4287,Eltzaburu. San Marcelo k. 35,43.00565500758020,-01.71680676704778,
3873,3873,Eltzaburu. San Marcelo k. 23,43.01041176396760,-01.72021703211009,
4009,4009,Larraintzar. NA-411 km 17 4 A,42.97946619697640,-01.69587727513929,
3877,3877,Lizaso. San Simón k. 41,42.96683001228430,-01.68545227819893,
4294,4294,Gerendiain. NA-411 km 20 2 A,42.96716176867500,-01.67673923923467,
4292,4292,Urritzola-Galain. NA-411 km 21 7 A,42.95724338185470,-01.66477796613718,
4290,4290,Urritzola-Galain.NA-411 km 21 9 A (F/int. NA-4242),42.95592193116820,-01.66266113436668,
3860,3860,Latasa. NA-411 km 22 9 A,42.95064343158720,-01.65255188050632,
3858,3858,Ripa/Erripa. NA-411 km 24 8 A (int. NA-4232),42.93922546746320,-01.63965019481967,
3856,3856,Ciáurriz/Ziaurritz. NA-411 km 26 A (int. NA-4241),42.92973392345310,-01.63509245787402,
3797,3797,Ostiz/Ostitz. c/ San Juan PROX. 32,42.91335406924830,-01.61712676159596,
3793,3793,Endériz. N-121-A km 13 1 D,42.90569170231610,-01.61274144666658,
3880,3880,Olave/Olabe. N-121-A km 10 6 D,42.88457164186910,-01.60433756909741,
3791,3791,Sorauren. c/ San Andrés F/17,42.86768917286510,-01.60928850930522,
3881,3881,Oricáin. Av. de Irún 19,42.85343793719570,-01.62190593249949,
3938,3938,Ibero. c/ Lubia 3,42.80398170826740,-01.77547273442081,
4073,4073,Etxauri. c/ Romana Basterra 15,42.79450744891440,-01.79063886051924,
3941,3941,Ciriza/Ziritza. Pl Mendiburu,42.79031814148620,-01.82765817214630,
4034,4034,Echarri/Etxarri. c/ San Esteban 3,42.78067533712660,-01.82608000427765,
3943,3943,Bidaurreta. c/ Jaizbidea (marquesina),42.77458578721320,-01.83381067183372,
4033,4033,Echarri/Etxarri. c/ San Esteban F/7,42.78084775262550,-01.82533101435572,
3939,3939,Etxauri. c/ Mayor 3,42.79400252513840,-01.79143127818168,
4301,4301,Atasenegi Kisulabe. NA-4150 km 13 5 D,43.16464821610590,-01.85471735773736,
3897,3897,Leitza. Elbarren k. F/52,43.08048453167720,-01.91509188671670,
3493,3493,Lazagurría. c/ Mayor PROX. 53,42.49275903398420,-02.24074005355601,
3494,3494,Lazagurría. c/ Mayor PROX. 84,42.49282247272620,-02.24080013107710,
5109,5109,Estella.Hospital. c/Santa Soria 22,42.68309965967620,-02.03863193870749,
4399,4399,Pasajes/Pasaia. Carrer San Marcos k. 10,43.31564926247760,-01.91637747990753,
3364,3364,Errenteria. Nafarroa etorb. 73-75,43.31486162785420,-01.90274083877213,
3169,3169,Irun. Estacion km (FFCC geltokia),43.33977512530740,-01.80057832814018,
3323,3323,Garínoain. c/ Valdorba F/11,42.60020770675130,-01.64566295729805,
3311,3311,Murillo el Cuende. c/ San Isidro 23,42.39793744001890,-01.62999021277038,
3310,3310,Traibuenas. NA-1240 km 2 1 A,42.36915812051870,-01.62756217390032,
3299,3299,Figarol. Pl. España 1,42.35141453007160,-01.36781076815538,
3304,3304,Murillo el Fruto. c/ Mayor 55,42.39291907393410,-01.46131585467552,
3307,3307,Santacara. c/ Ctra. Aibar PROX.F/23,42.37544238500400,-01.54856181258040,
4105,4105,Pitillas. c/ Beire 16,42.42394282875630,-01.61962119971799,
3315,3315,Beire. Pl. V. Flamarique 1,42.45408529866450,-01.62192836724122,
4567,4567,Unzué / Untzue. c/Soroeta 2,42.65091219110150,-01.62619862677656,
3309,3309,Traibuenas. NA-1240 km 2 1 D,42.36921176917130,-01.62762219646033,
3341,3341,Lerín. c/ Portal F/10,42.48416267223000,-01.97048610904415,
3339,3339,Miranda de Arga. Av. San Benito F/14,42.48377309020200,-01.82696969332483,
3343,3343,Berbinzana. c/ Nueva 3 (Iglesia),42.52679172695330,-01.83387117563660,
3345,3345,Larraga. c/ Ctra. Estella 2,42.55804987826110,-01.84985538887717,
3561,3561,Barásoain. c/ Doctor Navarro F/25,42.60538359781340,-01.64538777946539,
3553,3553,Peralta. c/ Irurzun 24,42.33842585199740,-01.79720615683412,
5084,5084,Novallas. c/ Lázaro Fortunez (F/marquesina),41.94740534410470,-01.69754365843314,
5083,5083,Novallas. c/ Lázaro Fortunez (marquesina),41.94737389849470,-01.69766000996558,
3614,3614,Monteagudo. Pz. San Francisco 1,41.96265103515100,-01.69173310972213,
3612,3612,Tulebras. N-121-C km 11 6 D,41.97764949048020,-01.67627735089955,
5085,5085,Novallas. N-121 km 5 7 A,41.94865135393400,-01.69814873548946,
4455,4455,Askartza. A-132  km 5 A,42.84157192785100,-02.62003760580997,
4453,4453,Aberásturi. A-132  km 7 2 A (int. A-4119),42.83897725676010,-02.59362225050694,
3979,3979,Andollu. A-132  km 9 4 A,42.83042327990750,-02.56939199923875,
4445,4445,Hijona/Ixona. A-132  km 11 7 A,42.81756563527200,-02.54666800677910,
3977,3977,Azáceta. Ctra. Vitoria-Estella k. F/8,42.77845160464360,-02.49843436532888,
4441,4441,Virgala Mayor/Birgara Goien. A-132  km 23 3 D,42.75220618443940,-02.47560040945954,
3975,3975,Maeztu. Ctra. Vitoria-Estella k. 1,42.73807383745600,-02.44639934693750,
3973,3973,Atauri. Ctra. Vitoria-Estella k. PROX. F/3,42.72710800594130,-02.42689249343401,
3429,3429,S.Cruz Campezo/Santikurutze Kanpezu. Arrabal 105,42.67281277843780,-02.34623553426360,
3432,3432,Zúñiga. NA-132-A km 25 5 D (int. NA-7191),42.68836668140910,-02.29640146955838,
5019,5019,Tudela. c/ Díaz Bravo 5,42.05978072343350,-01.60830763815914,
4963,4963,Tudela. c/ Juan Antonio Fernández 53,42.05978060735010,-01.60538971861321,
4965,4965,Tudela. c/ Capuchinos F/10 (iglesia),42.06011779010520,-01.60266097403961,
4967,4967,Tudela. Av. Zaragoza 12,42.06149894808460,-01.60254965326887,
4969,4969,Tudela. Ps. Pamplona 8,42.06270423004910,-01.60242998831812,
4971,4971,Tudela. c/ Ruiz de Conejares F/1,42.06513169060620,-01.60381821326469,
4973,4973,Tudela. Ps. El Castillo 10,42.06580411546330,-01.60641270603805,
4975,4975,Tudela. c/ Virgen de la Cabeza PROX. 2bis,42.06631698244140,-01.60910603670565,
4977,4977,Tudela. c/ Virgen de la Cabeza F/26,42.06594412374230,-01.61122660522931,
4979,4979,Tudela. Pl. San Juan 6,42.06370159037750,-01.60929120730378,
4981,4981,Tudela. c/ Carretera Alfaro 2,42.06291098432590,-01.61130199183057,
4983,4983,Tudela. Av. Tarazona (cementerio),42.05513944909500,-01.61036742211667,
3603,3603,Tudela. Av. Tarazona (UPNA),42.05068250079670,-01.61370510146814,
4987,4987,Tudela. Av. Tarazona (F/ETI),42.04872246064950,-01.61578831487252,
4989,4989,Tudela. Av. tarazona (ETI),42.04899746781280,-01.61523675300899,
4991,4991,Tudela. Av. Tarazona (F/cementerio),42.05593902930370,-01.60945197512371,
4993,4993,Tudela. Av. de la Argentina 3,42.05833533413770,-01.61134414978265,
5033,5033,Tudela. c/ Misericordia F/1,42.06028722283850,-01.60810215615062,
4581,4581,Irun. Colon ibilbidea 43,43.34076456493230,-01.79644627704705,
3839,3839,Behobia. Endarlatza etor. 5,43.34254746600110,-01.76243877047529,
3837,3837,Irun. N-121-A km 68 5 A (Bidasoa auz.),43.29487068751010,-01.73035627641836,
4325,4325,Bera. Bidasoa k. 18,43.27951410453000,-01.68842675851138,
3847,3847,Bera. Bidasoa k. 64,43.27595845892590,-01.68851546210340,
4329,4329,Lesaka. NA-4000 km 0 1 A (Bereau auz.),43.25474521758450,-01.68152968249526,
4055,4055,Etxalar. N-121-A km 59 7 A (int. NA-4400),43.24294024126200,-01.66982411509033,
3829,3829,Igantzi. Berriainz Auz. 11,43.22842553077300,-01.67761464917696,
3827,3827,Sunbilla. Nagusia k. 1,43.16333915998750,-01.66966983491920,
3814,3814,Legasa. NA-1210 km 22 9 D (int. NA-4044),43.13180061610210,-01.64475530840185,
3812,3812,Narbarte. c/ San Andrés F/33,43.13374478781940,-01.62806454093690,
3811,3811,Narbarte. c/ San Andrés 33,43.13381665875650,-01.62805063890515,
3813,3813,Legasa. NA-1210 km 22 9 A (int. NA-4044),43.13190575643740,-01.64526936741979,
3810,3810,Berroeta. NA-1210 km 14 9 D,43.09845673588750,-01.59260259743074,
3808,3808,Almandoz. Nagusia k. (F/parking),43.09047845505900,-01.60583368004229,
3804,3804,Arraitz-Orkin. Ventas Arraitz k. 11,43.00894367821340,-01.63603687599865,
3802,3802,Olague. San Juan k. 29,42.96303070610080,-01.61884194423639,
3800,3800,Burutain. N-121-A km 16 2 D,42.93031943810520,-01.60895272502418,
4299,4299,Villava/Atarrabia. NA-2517 km 0 1 D,42.83511901182010,-01.60979660768542,
4099,4099,Burlada/Burlata. c/ Ronda de las Ventas 19,42.82784172227990,-01.61862187093640,
4100,4100,Burlada/Burlata. c/ Ronda de las Ventas F/19,42.82781428921100,-01.61850479896319,
4300,4300,Villava/Atarrabia. NA-2517 km 0 1 A,42.83495681491070,-01.60978802052590,
3799,3799,Burutain. N-121-A km 16 2 A,42.92988552940280,-01.60881544968896,
3801,3801,Olague. San Juan k. PROX. 78,42.96278116173010,-01.61850748628731,
3803,3803,Arraitz-Orkin. Ventas Arraitz k. 58,43.00894162211590,-01.63586513851633,
3807,3807,Almandoz. Nagusia k. (parking),43.09039623713040,-01.60573725352446,
3809,3809,Berroeta. NA-1210 km 14 9 A,43.09835665369110,-01.59251887371615,
3828,3828,Sunbilla. Nagusia k. 26,43.16332001088300,-01.66957182943768,
3835,3835,Bera. Bidasoa k. 47,43.27504586339390,-01.68823929714396,
4326,4326,Bera. Bidasoa k. 5,43.27954841796970,-01.68827812731659,
3838,3838,Irun. N-121-A km 68 5 D (Bidasoa auz.),43.29469499801880,-01.72994079450021,
4429,4429,Behobia. Juan Thalamas Labandibar F/23,43.34247863021440,-01.76440177983054,
3843,3843,Irun. Colon ibilbidea 48,43.34070432492350,-01.79561302247417,
3363,3363,Errenteria. Nafarroa etorb. 26-28,43.31494218112660,-01.90269006241671,
3821,3821,Olaibar. N-121-A km 12 1 A (int. NA-2512),42.89779533033050,-01.60912185364928,
4881,4881,Etulain. N-121-A km 17 7 A (int. NA-2514),42.94358345146870,-01.61093772925861,
3823,3823,Lantz. N-121-A km 22 3 A (int. NA-2523),42.98054542560590,-01.62952758708797,
3805,3805,Arraitz-Orkin. N-121-A km 26 9 A,43.02096479436430,-01.63449421246254,
4061,4061,Mugairi. Martin Urrutia etor. 28bis,43.13744254009320,-01.61138225429133,
4327,4327,Lesaka. NA-1210 km 43 7 D (int. NA-4000),43.25448995824420,-01.68047569358423,
4437,4437,Errenteria. Nafarroa etorb. PROX. F/29,43.31287248984770,-01.89721543728091,
3845,3845,Errenteria. Nafarroa etorb. PROX. 29,43.31235040366320,-01.89630007609715,
4063,4063,Mugairi. Ctra. Pamplona k. PROX. 2,43.13676488248460,-01.61045079406193,
3806,3806,Arraitz-Orkin. N-121-A km 26 9 D,43.02098558090600,-01.63472693136292,
3824,3824,Lantz. N-121-A km 22 3 D (F/int. NA-2523),42.98075719087940,-01.62991533788353,
4883,4883,Etulain/Etulain. N-121-A km 17 5 D,42.94172052636970,-01.61020274232485,
3822,3822,Olaibar. N-121-A km 12 1 D (F/int. NA-2512),42.89781646880390,-01.60937858926126,
3790,3790,Oricáin. N-121-A km 6 5 D (int. NA-2552),42.85217681044640,-01.62261940359682,
4887,4887,Villava/Atarrabia. c/ Las Eras 7,42.83215906893560,-01.61096260997606,
4129,4129,Pamplona/Iruña. Av. Zaragoza PROX. 61,42.80396015870500,-01.64422492483852,
8003,8003,ENLACE Tudela - Cintruénigo,42.07871226704390,-01.80358112623746,
3361,3361,Pasajes/Pasaia. Navarra etorb. F/14-15 (trena),43.31892929685330,-01.91758933698608,
3647,3647,Soria.  Estación Bus. Av. Valladolid 40,41.76701275046520,-02.47902992320095,
3171,3171,Etxarren. NA-2410  km 2 5 A,42.91394308841650,-01.85725333540628,
4377,4377,Ekai. NA-2410 km 3 6 A (F/int. NA-7013),42.90890024620890,-01.86630170973608,
4379,4379,Zuhatzu. NA-2410 km 4 5 A (int. NA-7068),42.90887342149150,-01.87727859823174,
4381,4381,Satrustegi. NA-2410 km 5 1 A (F/int. NA-7069),42.90982513941640,-01.88435441200675,
3173,3173,Hiriberri Arakil. Arriba k. 1,42.91492372589480,-01.89380633563189,
3175,3175,Ihabar. Nagusia k. 28,42.91845733149530,-01.91772087258397,
3177,3177,Irañeta. NA-2410 km 10 5 A,42.91909037973180,-01.94221086181378,
3181,3181,Arruazu. A-10 km 14 1 A (ramal x NA-7103),42.92394180826150,-02.00089902578726,
3183,3183,Lakuntza. Mikel Arregi k. 1,42.92224145254800,-02.02296986586252,
3185,3185,Arbizu. Iruñeko etorb. 30,42.91625901609010,-02.03853869505062,
5147,5147,Etxarri Aranatz. Burundabide etorb. 6,42.90559139338880,-02.06531735067453,
3190,3190,Bakaiku. Bideberrialde k. 20,42.89231031233220,-02.10225382255936,
3191,3191,Iturmendi. Arranobeltza enp. 6,42.88975562511830,-02.11881173222022,
3193,3193,Urdiain. Bentalde k. 6,42.89047511859890,-02.13638793307117,
5053,5053,Vitoria-Gasteiz. Madrid k. F/30,42.85273873096060,-02.65727611671946,
3199,3199,Ziordia. NA-2410 km 36 2 D,42.86885191245350,-02.22400423059411,
3194,3194,Urdiain. Bentalde k. 3,42.89034230321420,-02.13549576831075,
3189,3189,Bakaiku. Bideberrialde k. 11,42.89224516133580,-02.10198534167909,
4144,4144,Arruazu. Kaleaundi F18,42.92207691642180,-01.99965181679444,
4382,4382,Satrustegi. NA-2410 km 5 1 D (int. NA-7069),42.90974470457870,-01.88441711580939,
4380,4380,Zuhatzu. NA-2410 km 4 5 D (F/int. NA-7068),42.90875733696840,-01.87737870846995,
4378,4378,Ekai. NA-2410 km 3 6 D (int. NA-7013),42.90882882497570,-01.86636427082947,
3172,3172,Etxarren. NA-2410  km 2 5 D,42.91378966333070,-01.85721942855277,
3536,3536,Tafalla. Av. Baja Navarra 7,42.53162748614590,-01.67254177455385,
3875,3875,Ilarregi. NA-411 km 12 8 D (int. NA-4355),43.00121503565520,-01.73861491806952,
4116,4116,Auza. NA-411 km 15 6 A (F/int. NA-4116),42.99167552604900,-01.71085416738723,
4795,4795,Tolosa. Ibarralde k. F/3,43.13422083742720,-02.07188235625910,
3699,3699,Ibarra. San Bartolomé k. 1,43.13169081097430,-02.06252994382500,
3697,3697,Berrobi. Jose Maria Goikoetxea k. 30,43.14543565247630,-02.02600658489530,
3695,3695,Eldua. Eldua auz. 28,43.14468000748280,-02.01254014201083,
3694,3694,Elduain. GI-2130 km 7 9 A,43.14159606689390,-02.00288310448777,
3692,3692,Berastegi. Ctra. Leitza-Tolosa k. F/10,43.12455048207760,-01.97871378411444,
3690,3690,Berastegi. GI-2130 km 14 2 A,43.10576127814920,-01.96132789118057,
3689,3689,Berastegi. GI-2130 km 14 2 D,43.10582069274130,-01.96130764095679,
3691,3691,Berastegi. Ctra. Leitza-Tolosa k. PROX. 6,43.12449402606750,-01.97801749339557,
3696,3696,Elduain. GI-2130 km 7 9 D,43.14165605314700,-02.00269497651280,
3698,3698,Berrobi. Jose Maria Goikoetxea k. F/30,43.14549424453030,-02.02604865936574,
4423,4423,Novillas. c/ Mallén 40,41.93349817121630,-01.39582518980041,
3602,3602,Cortes. c/ Ctra. Novillas F/4,41.92354336414700,-01.42033822215444,
3599,3599,Buñuel. c/ Mayor 3,41.98135896390280,-01.44637062257443,
3571,3571,Ribaforada. c/ Caballeros Templarios PROX. 11,41.99757552397850,-01.51060694057324,
5169,5169,Fustiñana. c/ Valero Bermejo 46,42.02285937576230,-01.49011317823660,
3597,3597,Fustiñana. c/ Valle del Roncal F/2,42.02127845221970,-01.48470600254084,
3596,3596,Cabanillas. c/ Ramón y Cajal 63,42.03138785440280,-01.52548499859813,
3593,3593,Fontellas. c/ Tudela F/27,42.02921444049120,-01.57948402213911,
3595,3595,Cabanillas. c/ Ramón y Cajal 16A,42.03130666656070,-01.52547479516770,
3600,3600,Buñuel. c/ Mayor 4,41.98127728912550,-01.44632432562877,
3574,3574,Cortes. c/ Carmen Bellido F/38bis,41.92511911488220,-01.42221762240927,
5170,5170,Fustiñana. c/ Valero Bermejo 61,42.02295179363350,-01.49029217056720,
5051,5051,Vitoria-Gasteiz. Madrid k. 30,42.85255364871450,-02.65766243030313,
3238,3238,Ilarratza. N-104 km 357 5 A,42.85937078106710,-02.59824131202578,
3236,3236,Matauko/Matauko. N-104 km 359 1 A,42.86160654406790,-02.57850214912851,
3220,3220,Gazeo. c/ Gazeo 23,42.85175798088270,-02.42746668596542,
3210,3210,Eguilaz/Egilatz. A-3138 km  32 3 A (F/int. A-4158),42.86116918821720,-02.32566114149292,
3208,3208,Durruma/San Román de San Millán. A-3138 km 33 3 A,42.86550545355930,-02.31296563669148,
4503,4503,Pasai Antxo. Buenavista etorb. 12,43.32079760267040,-01.92186014099107,
4039,4039,Oiartzun. GI-636 km 5 A,43.31352820580810,-01.87673411603825,
4571,4571,Irun . Ospital k. (Bidasoako ESI),43.34143224730970,-01.81467072920185,
4402,4402,Irun. Nafarroa hiribidea F/1,43.33924628371670,-01.78884442526327,
4017,4017,Bera. Eztegara Pasealekua (Toki Ona),43.28065194544960,-01.68166056580628,
5155,5155,Bera. Etxegara Pasealekua 1-3,43.28001930348730,-01.68742291347142,
3833,3833,Lesaka. Bittiria km 33,43.24685837467020,-01.70765413936618,
4087,4087,Sunbilla. Nagusia k. 8,43.16247793222320,-01.66994683194210,
4401,4401,Irun. Nafarroa hiribidea 1,43.33935417455500,-01.78882994381067,
4328,4328,Lesaka. NA-4000 km 0 1 D (Bereau auz.),43.25453550979990,-01.68151857528676,
4040,4040,Oiartzun. GI-636 km 5 D,43.31342526488800,-01.87725390642259,
4255,4255,Cadreita. Av. Navarra F/1C,42.21992386484220,-01.69580516229700,
3330,3330,Carrascal. N-121 km 19 7 A (F/int. NA-5010),42.65048496188510,-01.64362751365933,
4589,4589,Pamplona/Iruña. Hospitales. Av. Pio XII F/41,42.80708952567540,-01.66086905598053,
4591,4591,Pamplona/Iruña. c/ Sadar (El Sario),42.79646924634680,-01.63230486792166,
4023,4023,Gorriti. A-15 (ramal) km 133 1 A (int. NA-4012),43.04832789862830,-01.95665568996004,
3898,3898,Leitza. Elbarren k.  49-52,43.08036690588020,-01.91503253955386,
3167,3167,Berastegi. A-15 km 142 A (ramal int. GI-2130),43.11593014373920,-01.96260554816208,
3157,3157,Andoain. Berria k. PROX. 19,43.21292610677970,-02.02404705128455,
3158,3158,Andoain. Txitoki Ibilbidea,43.21915349990780,-02.02307288492976,
5134,5134,Pamplona.BºSan Juan/Donibane.MºOliva-MºIrache,42.81493897397600,-01.66439068217330,
5133,5133,Orkoien.Carretera Etxauri (rotonda Pol.Ipertegui),42.82152692730860,-01.68867863302998,
5131,5131,Iza.C/San Martín F/8,42.83673539497450,-01.72934801612488,
5119,5119,Arteta.Calle San Salvador 8,42.86109694647760,-01.86952189047386,
5120,5120,Senosiáin. c/San Martín (junto lavadero),42.86640461608060,-01.86388713091863,
5121,5121,Ollo. c/Santo Tomás (junto Ayuntamiento),42.86647672486280,-01.85886457415404,
5122,5122,Ultzurrun. C/San Juan,42.85574596486000,-01.85435657508013,
5123,5123,Saldise.C/San Gregorio (junto lavadero),42.85453603655700,-01.83044553800915,
5124,5124,Iltzarbe. Plaza San Esteban,42.86350763792470,-01.83701874499140,
5127,5127,Anotz. C/San Blas (frontón),42.86409247404540,-01.81996548716060,
5125,5125,Atondo.C/San Martín 12 (casa concejil),42.87897765757960,-01.81470912570344,
5126,5126,Atondo. Las Ventas,42.87422461731690,-01.81812530940812,
5128,5128,Lete. C/San Millán (frontón),42.86523134524170,-01.79655210318716,
5129,5129,Beasoain.C/San Martín (junto lavadero),42.85211061931080,-01.80898652343314,
5130,5130,Egíllor.C/San Miguel (marquesina),42.84857340799200,-01.81007533932563,
3408,3408,Villatuerta. c/ Ctra. Pamplona PROX. F/12,42.66169535402910,-01.99736701381859,
3405,3405,Lorca/Lorka. c/ Ctra. Pamplona PROX. F/2,42.67218381969510,-01.94690626476046,
3404,3404,Cirauqui/Zirauki. c/ Iturrizar PROX. F/1,42.67753176847150,-01.88961174191195,
3402,3402,Mañeru. c/ Ctra. Pamplona PROX. F/8,42.67129227471810,-01.86224046355632,
3397,3397,Obanos. NA-1110 km 13 6 D (int. NA-6061),42.69217624668620,-01.79199434057435,
3395,3395,Legarda. NA-1110 km 10 6 D,42.71336868517680,-01.77111590155697,
3394,3394,Astráin. c/ Ctra. Estella 1,42.75618114992450,-01.73812992702354,
5148,5148,Zizur Mayor. Ronda S.Cristóbal (trasera c/Idoia),42.78901132158220,-01.69181644095765,
5149,5149,Zizur Mayor. Ramal Autovía del Camino,42.78997058594250,-01.69333443142227,
3393,3393,Astráin. c/ Ctra. Estella 10,42.75613963354180,-01.73844849541330,
3396,3396,Legarda. NA-1110 km 10 6 A,42.71322921424540,-01.77154606709643,
3398,3398,Obanos. NA-1110 km 13 6 A (F/(int. NA-6061),42.69211053351370,-01.79259379063098,
3401,3401,Mañeru. c/ Ctra. Pamplona PROX. 8,42.67141820702030,-01.86222595047702,
3403,3403,Cirauqui/Zirauki. c/ Iturrizar PROX. 1,42.67766623541100,-01.88954831086530,
3406,3406,Lorca/Lorka. c/ Ctra. Pamplona PROX. 23,42.67257775526740,-01.94665552292037,
3369,3369,Villatuerta. c/ Ctra. Pamplona PROX. 24,42.66426379689900,-01.98836921507660,
5106,5106,Azqueta. c/Carrera PROX.13 (int. NA-1110),42.63440435750590,-02.08752164254421,
3415,3415,El Busto. NA-1110 km 60 4 A (F/int. NA-6362),42.55945237511000,-02.23891879871439,
3352,3352,Torres del Río. c/ Carretera 10,42.55344088968150,-02.27280582620441,
3417,3417,Bargota. NA-7206 km 2 7 D,42.55794740594470,-02.30973675728107,
3350,3350,Viana. c/ La Solana F/25,42.51422965526370,-02.37155995123751,
3418,3418,Bargota. NA-7206 km 2 7 A,42.55786584606620,-02.30965238485275,
3351,3351,Torres del Río. c/ Carretera 5,42.55350920946400,-02.27222035604046,
3354,3354,Sansol. c/ Ctra. Logroño F 9,42.55288340699060,-02.26589370271956,
3416,3416,El Busto. NA-1110 km 60 4 D (int. NA-6362),42.55937068289590,-02.23882233635058,
3411,3411,Ayegui/Aiegi. c/ Carretera PROX. F/16,42.65689818186100,-02.03754839393139,
4152,4152,Sesma. c/ Mayor F/1,42.48006951700090,-02.08444358057585,
3488,3488,Morentin. c/ Fueros 7,42.61314707957250,-02.01403375550167,
3490,3490,Muniáin de la Solana. c/ Mayor 29,42.62036139299060,-02.01204194749909,
3473,3473,Cárcar. c/ Paraje La Venta 11,42.40054561226150,-01.96469895205107,
4126,4126,Azagra. NA-134 km 46 43A,42.30419433751590,-01.89287581008469,
3474,3474,Cárcar. c/ Paraje La Venta F/11,42.40061666117120,-01.96458842440369,
4995,4995,Tudela. Ps. de los Tilos,42.05939839272900,-01.59691567785461,
4997,4997,Tudela. c/ Bulevar de la Peñica F/14,42.05912889187460,-01.59456990800103,
4999,4999,Tudela. Ps. de los Tilos F/59,42.05643915310920,-01.59402702844813,
5001,5001,Tudela. c/ Monasterio de la Oliva,42.05360254054060,-01.59537100994473,
5003,5003,Tudela. Pl. Europa PROX. 1,42.05332602180650,-01.59736937128025,
5005,5005,Tudela. Av. del Barrio F/1,42.05365401868130,-01.59864589489087,
5007,5007,Tudela. c/ Aguas del Alhama,42.05469739211850,-01.60252540203557,
5009,5009,Tudela. c/ Río de la Cuesta 8,42.05265401614640,-01.60179997111950,
5011,5011,Tudela. Av. Huertas Mayores (F/instituto),42.05012525386330,-01.60427091483113,
5013,5013,Tudela. Av. Huertas Mayores (piscinas),42.05083684057190,-01.60662767415591,
5015,5015,Tudela. c/ Camino Tronzaires 5b,42.05351256582090,-01.60607417671735,
5017,5017,Tudela. Glorieta Merindad de Sangüesa,42.05630194465220,-01.60682779551849,
5021,5021,Tudela. Glorieta Merindad de Olite,42.05839579886490,-01.61367738558166,
5023,5023,Tudela. Glorieta Merindad de Pamplona,42.06063745003450,-01.61558714065626,
5025,5025,Tudela. Av. Merindades (int. c/ Gaiteros),42.06370854283970,-01.61798148515337,
5027,5027,Tudela. c/ Auroros 15,42.06490637686570,-01.61683573968099,
5029,5029,Tudela. c/ Virgen de la Cabeza F/34,42.06471833918260,-01.61418714523902,
5031,5031,Tudela. Camino San Marcial 16,42.06133577684720,-01.60046332465295,
3279,3279,Zarautz. Gipuzkoa k. 13,43.28536128862270,-02.16993180357297,
3277,3277,Orio. Aita Lerchundi k. 28,43.27666035766660,-02.12503061280845,
3280,3280,Zarautz. Gipuzkoa k. 38,43.28529844164840,-02.16995730971002,
3278,3278,Orio. Aita Lerchundi k. 25,43.27658776334610,-02.12495772123809,
4585,4585,Pamplona/Iruña. Pl. Merindades 3,42.81305529272350,-01.63898898015073,
4231,4231,Pamplona/Iruña. Av. Baja Navarra (Seminario),42.81419988314110,-01.62993451436838,
3956,3956,Elcano. NA-150 km 2 1 A (rotonda P.I.),42.82565358165080,-01.56164865067394,
4227,4227,Elcano. c/ Clínica A (int. Ps. La Ermita),42.82898267384780,-01.55529812291398,
4302,4302,Atasenegi Kisulabe. NA-4150 km 13 5 A,43.16479177203310,-01.85466546985894,
4160,4160,Estella-Lizarra. Pl. San Agustín 2A,42.67059562828770,-02.02453364196896,
3371,3371,Estella-Lizarra. Av. Pamplona PROX. 36,42.66498301543570,-02.01926626414262,
4553,4553,Villatuerta. c/ Erregueta 2 (polideportivo),42.66161249445930,-01.98959779604308,
3335,3335,Ujué / Uxue. c/ Ctra. San Martín F/2,42.50695130139490,-01.50093713670207,
3427,3427,Genevilla. c/ Ctra. Santa Cruz de Campezo F/5,42.64548360953980,-02.38908352317227,
4357,4357,Goizueta. NA-4150 km 18 2 D,43.19777712248130,-01.85574729332773,
3887,3887,Arano. NA-4150 km 23 5 A,43.21158395979160,-01.88153819390393,
3890,3890,Arano. NA-4150 km 25 1 A,43.20766018087020,-01.88545052681454,
4371,4371,Arano. Barrio Venta Berri 2,43.22084571289850,-01.91194032770605,
3893,3893,Ereñotzu. Ereñoztu Auzoa 6,43.24252496667080,-01.94032583665799,
4485,4485,Epela. GI-3410 km 3 5 D,43.25413284535450,-01.94629616787340,
4477,4477,Zikugaña. GI-3410 km 2 D,43.26034131084480,-01.95560160658822,
4469,4469,Zikugaña. GI-3410 km 0 6 D,43.26188082107620,-01.96745221359959,
3112,3112,Sada. c/ Arrabal PROX. F/2,42.58569124059810,-01.39694971527911,
3113,3113,Ayesa. NA-132 Km 61 2 D (int. NA-5141),42.55644571902060,-01.41469191479089,
3115,3115,Eslava. c/ Inmaculada 25,42.56425901123100,-01.45864332807906,
3117,3117,Lerga. c/ San Francisco Javier 29,42.56763102252920,-01.50100636791147,
3120,3120,San Martín de Unx. Pl. Miguel Sanz 5,42.52367076837070,-01.56175102445898,
3773,3773,Tudela. c/ Juan Antonio Fernández 13,42.05845240725870,-01.60178194300843,
5037,5037,Tudela. c/ Cuesta Estación 8,42.05845186399100,-01.59965596235532,
5039,5039,Tudela. Av. Zaragoza PROX. 64,42.05480971363980,-01.59810698397432,
5041,5041,Tudela. c/ Ador (int. c/ Estanque),42.05484815722410,-01.60417579775986,
3168,3168,Berastegi. A-15 km 142 D (ramal int. GI-2130),43.11580451384500,-01.96366874885645,
3163,3163,Gorriti. A-15 (ramal) km 133 1 D,43.04767646923420,-01.95730520202834,
3123,3123,Berriozar. Av. Gipuzkoa F/34,42.83650764215100,-01.67286663298994,
3141,3141,Azpirotz. NA-1300 km 17 7 A (int. NA-4061),43.02551687743590,-01.93110833146189,
3143,3143,Lezaeta. La Asunción k. 10,43.02539896781040,-01.95636937792092,
3145,3145,Betelu. Mayor k. 9,43.02530623539060,-01.98002202510831,
3147,3147,Arribe. Mayor k. 12,43.03675935092970,-01.98496345055650,
3149,3149,Lizartza. Nagusia k. 19,43.10205653669270,-02.03419430680830,
3151,3151,Usabal. Iruña etorb. F/20,43.12662229457940,-02.07896145420255,
3153,3153,Irura. N-1 km 439 3 A (trinkete),43.16776829227940,-02.06607708411417,
3155,3155,Villabona. Berria k. 57 (eliza),43.18617098665210,-02.05261677743064,
5082,5082,Lasarte. Nagusia k. 39,43.26623934888820,-02.01948021575382,
4565,4565,Zaragoza. Av. Gómez Laguna F/15,41.64249818471830,-00.90809548746225,
3641,3641,Valverde. Pl. La Rioja 9,41.97960810034020,-01.86132834119756,
3643,3643,Ágreda. Av. Navarra 27,41.85797428608860,-01.92388577018262,
3645,3645,Matalebreras. c/ Ctra. Madrid 31-35,41.84088751126000,-02.04491831043392,
3646,3646,Matalebreras. c/ Ctra. Madrid F/31,41.84073421476820,-02.04489651308448,
3642,3642,Valverde. c/ Ctra. Madrid 16,41.97960666365640,-01.86118351940334,
5167,5167,Sarriguren. Av.Olaz 1 (Salesianos),42.81458502984860,-01.59051784654324,
5081,5081,Lasarte. Nagusia k. 40,43.26611472281730,-02.01958128661095,
3156,3156,Villabona. Nagusia k. 72,43.18533692414830,-02.05302346888305,
3154,3154,Irura. N-1 km 439 3 D (vial Ibai-Ondo),43.17412808975000,-02.05944157538651,
3152,3152,Usabal. Iruña etorb. 20,43.12656114835300,-02.07919595457131,
3150,3150,Lizartza. Nagusia k. F/15,43.10235240327260,-02.03404217564262,
4025,4025,Arribe. Mayor k. F/10,43.03612703812890,-01.98474064653596,
4019,4019,Betelu. Mayor k.10,43.02566317173140,-01.98066661872954,
3144,3144,Lezaeta. La Asunción k. F/10,43.02533426411060,-01.95618637038039,
3142,3142,Azpirotz. NA-1300 km 17 7 D (F/int. NA-4061),43.02540803329700,-01.93102430497315,
3124,3124,Berriozar. Av. Gipuzkoa 34,42.83644603967530,-01.67299031168198,
3772,3772,Cascante. NA-3042 km 0 1 A,41.99258425142590,-01.67568977064031,
3770,3770,Ablitas. Av. Cascante F/8,41.97572007717770,-01.64143506027910,
4071,4071,Barillas. c/ Ctra. Ablitas (piscinas),41.97093770744660,-01.66212671335842,
4072,4072,Barillas. c/ Ctra. Ablitas (F/piscinas),41.97087495893590,-01.66215216436705,
3769,3769,Ablitas. Av. Cascante 8,41.97577324510250,-01.64136149934058,
3771,3771,Cascante. NA-3042 km 0 1 D,41.99265586777360,-01.67565206686059,
